Time, Altitude - m, Altitude - ft, SpeedofSound - ft/sec, AirDensity - slug/ft3,TransVel - ft/sec,Mach, AoA - rad, AoA - deg, AoS - rad, AoS - deg, u_NED, v_NED, w_NED, u_NED - ft/sec, v_NED - ft/sec, w_NED - ft/sec, phi_rad, theta_rad, psi_rad, phi_deg, theta_deg, psi_rad, roll_rate, pitch_rate, yaw_rate, roll_rate - deg, pitch_rate - deg, yaw_rate - deg 
0.0000000000,9146.3414634146,30000.0000000000,994.5618053589,0.0008911192,0.0000000002,0.0000000000,0.0000000000,0.0000000000,0.0000000000,0.0000000000,0.0000000001,0.0000000000,0.0000000000,0.0000000003,0.0000000000,0.0000000000,0.0000000000,0.0000000000,0.0000000000,0.0000000000,0.0000000000,0.0000000000,0.1745329252,0.3490658504,0.5235987756,10.0050721452,20.0101442904,30.0152164356
0.0100000000,9146.3409744901,29999.9983963276,994.5618122447,0.0008911192,0.1900782093,0.0003224882,-1.5673063492,-89.8455868943,0.0017497109,0.1003018964,0.0000000001,0.0000000000,0.0977849048,0.0000000003,0.0000000000,0.3207344876,0.0017497215,0.0034899733,0.0052372258,0.1003025059,0.2000621655,0.3002231349,0.1735830894,0.3498433343,0.5232338232,9.9506229596,20.0547134329,29.9942956001
0.0200000000,9146.3395077165,29999.9935853102,994.5618329020,0.0008911194,0.3801564186,0.0006449765,-1.5638177693,-89.6456046084,0.0035081393,0.2011035289,0.0000000001,0.0000000000,0.1955698095,0.0000000003,0.0000000000,0.6414689753,0.0035082247,0.0069785151,0.0104770059,0.2011084246,0.4000422665,0.6005926965,0.1726318095,0.3506160340,0.5228700589,9.8960909927,20.0990083205,29.9734428676
0.0300000000,9146.3370630939,29999.9855669480,994.5618673310,0.0008911196,0.5702346280,0.0009674647,-1.5603306482,-89.4457059461,0.0052752173,0.3024009890,0.0000000001,0.0000000000,0.2933547144,0.0000000003,0.0000000000,0.9622034632,0.0052755061,0.0104655334,0.0157194577,0.3024175493,0.5999350329,0.9011154090,0.1716790993,0.3513839508,0.5225074994,9.8414770320,20.1430290251,29.9526592016
0.0400000000,9146.3336406222,29999.9743412410,994.5619155315,0.0008911200,0.7603128376,0.0012899528,-1.5568450442,-89.2458942549,0.0070508765,0.4041903745,0.0000000001,0.0000000000,0.3911396193,0.0000000003,0.0000000000,1.2829379514,0.0070515627,0.0139509360,0.0209646983,0.4042297106,0.7997351860,1.2017979902,0.1707249725,0.3521470859,0.5221461614,9.7867818605,20.1867756229,29.9319455604
0.0500000000,9146.3292403015,29999.9599081890,994.5619775036,0.0008911205,0.9503910475,0.0016124409,-1.5533610156,-89.0461728678,0.0088350492,0.5064677907,0.0000000001,0.0000000000,0.4889245244,0.0000000003,0.0000000000,1.6036724400,0.0088363922,0.0174346309,0.0262128448,0.5065447758,0.9994374390,1.5026471522,0.1697694425,0.3529054407,0.5217860616,9.7320062570,20.2302481940,29.9113028970
0.0600000000,9146.3238621318,29999.9422677922,994.5620532473,0.0008911211,1.1404692576,0.0019349290,-1.5498786200,-88.8465450943,0.0106276676,0.6092293512,0.0000000001,0.0000000000,0.5867094296,0.0000000003,0.0000000001,1.9244069290,0.0106299929,0.0209165255,0.0314640141,0.6093626485,1.1990364958,1.8036696005,0.1688125229,0.3536590168,0.5214272166,9.6771509959,20.2734468223,29.8907321590
0.0700000000,9146.3175061129,29999.9214200504,994.5621427626,0.0008911218,1.3305474681,0.0022574169,-1.5463979147,-88.6470142192,0.0124286639,0.7124711783,0.0000000001,0.0000000000,0.6844943350,0.0000000004,0.0000000001,2.2451414187,0.0124323637,0.0243965275,0.0367183233,0.7126832686,1.3985270517,2.1048720346,0.1678542272,0.3544078156,0.5210696426,9.6222168474,20.3163715955,29.8702342888
0.0800000000,9146.3101722451,29999.8973649638,994.5622460494,0.0008911225,1.5206256790,0.0025799048,-1.5429189567,-88.4475835033,0.0142379707,0.8161894034,0.0000000001,0.0000000000,0.7822792406,0.0000000004,0.0000000001,2.5658759091,0.0142435042,0.0278745439,0.0419758889,0.8165066118,1.5979037924,2.4062611473,0.1668945687,0.3551518388,0.5207133561,9.5672045770,20.3590226049,29.8498102231
0.0900000000,9146.3018605281,29999.8701025322,994.5623631079,0.0008911234,1.7107038903,0.0029023926,-1.5394418023,-88.2482561832,0.0160555207,0.9203801673,0.0000000001,0.0000000000,0.8800641464,0.0000000004,0.0000000001,2.8866104002,0.0160634147,0.0313504821,0.0472368277,0.9208326893,1.7971613939,2.7078436251,0.1659335607,0.3558910879,0.5203583734,9.5121149463,20.4013999457,29.8294608937
0.1000000000,9146.2925709621,29999.8396327558,994.5624939379,0.0008911244,1.9007821022,0.0032248802,-1.5359665077,-88.0490354725,0.0178812467,1.0250396209,0.0000000001,0.0000000000,0.9778490525,0.0000000004,0.0000000001,3.2073448922,0.0178920959,0.0348242489,0.0525012561,1.0256615475,1.9962945225,3.0096261475,0.1649712164,0.3566255648,0.5200047105,9.4569487121,20.4435037164,29.8091872265
0.1100000000,9146.2823035471,29999.8059556344,994.5626385395,0.0008911255,2.0908603147,0.0035473677,-1.5324931285,-87.8499245616,0.0197150818,1.1301639254,0.0000000001,0.0000000000,1.0756339589,0.0000000004,0.0000000001,3.5280793852,0.0197295492,0.0382957511,0.0577692906,1.1309932676,2.1952978342,3.3116153875,0.1640075489,0.3573552712,0.5196523836,9.4017066273,20.4853340192,29.7889901423
0.1200000000,9146.2710582830,29999.7690711681,994.5627969126,0.0008911268,2.2809385278,0.0038698551,-1.5290217199,-87.6509266190,0.0215569592,1.2357492527,0.0000000001,0.0000000000,1.1734188657,0.0000000004,0.0000000001,3.8488138793,0.0215757767,0.0417648953,0.0630410475,1.2368279654,2.3941659743,3.6138180109,0.1630425713,0.3580802090,0.5193014086,9.3463894401,20.5268909594,29.7688705563
0.1300000000,9146.2588351698,29999.7289793568,994.5629690574,0.0008911281,2.4710167416,0.0041923423,-1.5255523369,-87.4520447911,0.0234068123,1.3417917860,0.0000000001,0.0000000000,1.2712037728,0.0000000004,0.0000000001,4.1695483746,0.0234307810,0.0452315880,0.0683166429,1.3431657907,2.5928935778,3.9162406765,0.1620762966,0.3588003799,0.5189518014,9.2909978944,20.5681746461,29.7488293783
0.1400000000,9146.2456342075,29999.6856802006,994.5631549737,0.0008911295,2.6610949562,0.0045148293,-1.5220850340,-87.2532822034,0.0252645747,1.4482877198,0.0000000001,0.0000000000,1.3689886802,0.0000000004,0.0000000001,4.4902828712,0.0252945653,0.0486957352,0.0735961929,1.4500069272,2.7914752683,4.2188900360,0.1611087376,0.3595157861,0.5186035777,9.2355327299,20.6091851912,29.7288675125
0.1500000000,9146.2314553962,29999.6391736994,994.5633546616,0.0008911310,2.8511731716,0.0048373161,-1.5186198653,-87.0546419607,0.0271301802,1.5552332608,0.0000000001,0.0000000000,1.4667735882,0.0000000004,0.0000000001,4.8110173691,0.0271671333,0.0521572432,0.0788798132,1.5573515920,2.9899056583,4.5217727334,0.1601399072,0.3602264295,0.5182567533,9.1799946817,20.6499227103,29.7089858577
0.1600000000,9146.2162987357,29999.5894598532,994.5635681211,0.0008911326,3.0412513879,0.0051598028,-1.5151568847,-86.8561271476,0.0290035629,1.6626246277,0.0000000001,0.0000000000,1.5645584965,0.0000000004,0.0000000001,5.1317518686,0.0290484895,0.0556160175,0.0841676198,1.6652000350,3.1881793488,4.8248954054,0.1591698182,0.3609323122,0.5179113437,9.1243844808,20.6903873217,29.6891853072
0.1700000000,9146.2001642262,29999.5365386620,994.5637953522,0.0008911344,3.2313296051,0.0054822892,-1.5116961456,-86.6577408296,0.0308846571,1.7704580520,0.0000000001,0.0000000000,1.6623434054,0.0000000004,0.0000000002,5.4524863696,0.0309386387,0.0590719640,0.0894597283,1.7735525390,3.3862909288,5.1282646808,0.1581984831,0.3616334362,0.5175673644,9.0687028537,20.7305791470,29.6694667487
0.1800000000,9146.1830518676,29999.4804101258,994.5640363549,0.0008911362,3.4214078233,0.0058047754,-1.5082377011,-86.4594860527,0.0327733972,1.8787297784,0.0000000001,0.0000000000,1.7601283147,0.0000000004,0.0000000002,5.7732208722,0.0328375865,0.0625249879,0.0947562542,1.8824094187,3.5842349753,5.4318871806,0.1572259147,0.3623298039,0.5172248308,9.0129505225,20.7704983107,29.6498310645
0.1900000000,9146.1649616599,29999.4210742446,994.5642911291,0.0008911382,3.6114860425,0.0061272614,-1.5047816042,-86.2613658449,0.0346697180,1.9874360646,0.0000000001,0.0000000001,1.8579132246,0.0000000004,0.0000000002,6.0939553767,0.0347453389,0.0659749945,0.1000573127,1.9917710209,3.7820060530,5.7357695175,0.1562521254,0.3630214173,0.5168837582,8.9571282051,20.8101449404,29.6302791310
0.2000000000,9146.1458936031,29999.3585310183,994.5645596749,0.0008911402,3.8015642629,0.0064497471,-1.5013279072,-86.0633832163,0.0365735544,2.0965731822,0.0000000001,0.0000000001,1.9556981351,0.0000000004,0.0000000002,6.4146898830,0.0366619025,0.0694218887,0.1053630192,2.1016377235,3.9795987140,6.0399182962,0.1552771276,0.3637082788,0.5165441617,8.9012366149,20.8495191663,29.6108118194
0.2100000000,9146.1258476972,29999.2927804469,994.5648419923,0.0008911424,3.9916424844,0.0067722325,-1.4978766625,-85.8655411597,0.0384848416,2.2061374169,0.0000000001,0.0000000001,2.0534830461,0.0000000004,0.0000000002,6.7354243913,0.0385872844,0.0728655752,0.1106734886,2.2120099354,4.1770074974,6.3443401126,0.1543009338,0.3643903907,0.5162060566,8.8452764610,20.8886211216,29.5914299952
0.2200000000,9146.1048239422,29999.2238225304,994.5651380813,0.0008911446,4.1817207071,0.0070947177,-1.4944279218,-85.6678426513,0.0404035151,2.3161250687,0.0000000001,0.0000000001,2.1512679578,0.0000000004,0.0000000002,7.0561589016,0.0405214923,0.0763059587,0.1159888360,2.3228880960,4.3742269294,6.6490415540,0.1533235563,0.3650677553,0.5158694577,8.7892484483,20.9274509420,29.5721345181
0.2300000000,9146.0828223381,29999.1516572688,994.5654479418,0.0008911470,4.3717989312,0.0074172026,-1.4909817369,-85.4702906509,0.0423295106,2.4265324522,0.0000000001,0.0000000001,2.2490528702,0.0000000004,0.0000000002,7.3768934142,0.0424645344,0.0797429432,0.1213091760,2.4342726747,4.5712515227,6.9540291987,0.1523450072,0.3657403751,0.5155343800,8.7331532773,20.9660087662,29.5529262424
0.2400000000,9146.0598428848,29999.0762846621,994.5657715740,0.0008911495,4.5618771565,0.0077396872,-1.4875381591,-85.2728881030,0.0442627640,2.5373558972,0.0000000001,0.0000000001,2.3468377832,0.0000000004,0.0000000002,7.6976279290,0.0444164194,0.0831764330,0.1266346233,2.5461641704,4.7680757764,7.2593096160,0.1513652987,0.3664082526,0.5152008383,8.6769916439,21.0042947351,29.5338060167
0.2500000000,9146.0358855824,29998.9977047103,994.5661089777,0.0008911521,4.7519553833,0.0080621714,-1.4840972396,-85.0756379369,0.0462032116,2.6485917485,0.0000000001,0.0000000001,2.4446226970,0.0000000004,0.0000000002,8.0183624461,0.0463771565,0.0866063317,0.1319652923,2.6585631111,4.9646941756,7.5648893656,0.1503844429,0.3670713902,0.5148688473,8.6207642401,21.0423089923,29.5147746840
0.2600000000,9146.0109504309,29998.9159174132,994.5664601530,0.0008911548,4.9420336115,0.0083846553,-1.4806590291,-84.8785430676,0.0481507900,2.7602363668,0.0000000001,0.0000000001,2.5424076115,0.0000000004,0.0000000002,8.3390969657,0.0483467554,0.0900325430,0.1373012972,2.7714700534,5.1611011916,7.8707749975,0.1494024517,0.3677297905,0.5145384215,8.5644717533,21.0800516839,29.4958330815
0.2700000000,9145.9850374302,29998.8309227709,994.5668250999,0.0008911575,5.1321118413,0.0087071389,-1.4772235782,-84.6816063960,0.0501054358,2.8722861286,0.0000000001,0.0000000001,2.6401925268,0.0000000004,0.0000000002,8.6598314879,0.0503252263,0.0934549701,0.1426427521,2.8848855819,5.3572912810,8.1769730520,0.1484193371,0.3683834560,0.5142095756,8.5081148667,21.1175229582,29.4769820409
0.2800000000,9145.9581465803,29998.7427207834,994.5672038184,0.0008911604,5.3221900726,0.0090296221,-1.4737909375,-84.4848308097,0.0520670862,2.9847374265,0.0000000001,0.0000000001,2.7379774429,0.0000000004,0.0000000003,8.9805660128,0.0523125798,0.0968735161,0.1479897710,2.9988103088,5.5532588860,8.4834900589,0.1474351110,0.3690323895,0.5138823239,8.4516942592,21.1547229661,29.4582223882
0.2900000000,9145.9302778813,29998.6513114507,994.5675963084,0.0008911634,5.5122683056,0.0093521049,-1.4703611569,-84.2882191836,0.0540356786,3.0975866696,0.0000000001,0.0000000001,2.8357623599,0.0000000004,0.0000000003,9.3013005404,0.0543088272,0.1002880838,0.1533424676,3.1132448733,5.7489984341,8.7903325377,0.1464497850,0.3696765936,0.5135566807,8.3952106054,21.1916518604,29.4395549436
0.3000000000,9145.9014313331,29998.5566947726,994.5680025700,0.0008911665,5.7023465403,0.0096745874,-1.4669342864,-84.0917743803,0.0560111505,3.2108302837,0.0000000001,0.0000000001,2.9335472777,0.0000000004,0.0000000003,9.6220350708,0.0563139801,0.1036985757,0.1587009554,3.2281899411,5.9445043373,9.0975069971,0.1454633709,0.3703160709,0.5132326602,8.3386645755,21.2283097963,29.4209805217
0.3100000000,9145.8716069357,29998.4588707492,994.5684226033,0.0008911698,5.8924247767,0.0099970695,-1.4635103758,-83.8954992506,0.0579934400,3.3244647115,0.0000000001,0.0000000001,3.0313321964,0.0000000004,0.0000000003,9.9427696042,0.0583280504,0.1071048940,0.1640653478,3.3436462038,6.1397709928,9.4050199348,0.1444758804,0.3709508242,0.5129102766,8.2820568357,21.2646969311,29.4024999314
0.3200000000,9145.8408046892,29998.3578393805,994.5688564080,0.0008911731,6.0825030149,0.0103195511,-1.4600894746,-83.6993966344,0.0599824852,3.4384864132,0.0000000001,0.0000000001,3.1291171161,0.0000000004,0.0000000003,10.2635041407,0.0603510508,0.1105069408,0.1694357578,3.4596143784,6.3347927819,9.7128778369,0.1434873248,0.3715808564,0.5125895438,8.2253880475,21.3008134241,29.3841139758
0.3300000000,9145.8090245934,29998.2536006664,994.5693039844,0.0008911765,6.2725812550,0.0106420323,-1.4566716322,-83.5034693608,0.0619782248,3.5528918661,0.0000000001,0.0000000001,3.2269020367,0.0000000004,0.0000000003,10.5842386803,0.0623829942,0.1139046177,0.1748122985,3.5760952067,6.5295640703,10.0210871780,0.1424977158,0.3722061702,0.5122704758,8.1686588686,21.3366594365,29.3658234524
0.3400000000,9145.7762666484,29998.1461546069,994.5697653324,0.0008911800,6.4626594970,0.0109645131,-1.4532568977,-83.3077202490,0.0639805975,3.6676775654,0.0000000001,0.0000000001,3.3246869583,0.0000000004,0.0000000003,10.9049732232,0.0644238938,0.1172978262,0.1801950827,3.6930894549,6.7240792077,10.3296544204,0.1415070647,0.3728267684,0.5119530863,8.1118699522,21.3722351316,29.3476291529
0.3500000000,9145.7425308543,29998.0355012019,994.5702404519,0.0008911836,6.6527377410,0.0112869934,-1.4498453201,-83.1121521086,0.0659895426,3.7828400243,0.0000000001,0.0000000001,3.4224718809,0.0000000004,0.0000000003,11.2257077694,0.0664737636,0.1206864674,0.1855842227,3.8105979126,6.9183325277,10.6385860144,0.1405153829,0.3734426540,0.5116373892,8.0550219473,21.4075406745,29.3295318632
0.3600000000,9145.7078172108,29997.9216404515,994.5707293430,0.0008911874,6.8428159871,0.0116094733,-1.4464369484,-82.9167677403,0.0680049996,3.8983757742,0.0000000001,0.0000000001,3.5202568046,0.0000000004,0.0000000003,11.5464423191,0.0685326176,0.1240704423,0.1909798309,3.9286213924,7.1123183473,10.9478883970,0.1395226815,0.3740538298,0.5113233979,7.9981154987,21.4425762319,29.3115323634
0.3700000000,9145.6721257182,29997.8045723556,994.5712320057,0.0008911912,7.0328942352,0.0119319527,-1.4430318311,-82.7215699364,0.0700269082,4.0142813645,0.0000000001,0.0000000001,3.6180417294,0.0000000004,0.0000000003,11.8671768723,0.0706004705,0.1274496513,0.1963820194,4.0471607296,7.3060309671,11.2575679926,0.1385289718,0.3746602989,0.5110111260,7.9411512470,21.4773419725,29.2936314282
0.3800000000,9145.6354563762,29997.6842969141,994.5717484400,0.0008911952,7.2229724855,0.0122544316,-1.4396300170,-82.5265614813,0.0720552087,4.1305533637,0.0000000001,0.0000000001,3.7158266552,0.0000000005,0.0000000004,12.1879114292,0.0726773372,0.1308239948,0.2017909000,4.1662167808,7.4994646707,11.5676312117,0.1375342648,0.3752620641,0.5107005870,7.8841298286,21.5118380666,29.2758298260
0.3900000000,9145.5978091851,29997.5608141270,994.5722786459,0.0008911992,7.4130507381,0.0125769100,-1.4362315543,-82.3317451522,0.0740898414,4.2471883588,0.0000000001,0.0000000001,3.8136115823,0.0000000005,0.0000000004,12.5086459898,0.0747632330,0.1341933728,0.2072065843,4.2857904240,7.6926137247,11.8780844511,0.1365385716,0.3758591284,0.5103917940,7.8270518756,21.5460646858,29.2581283200
0.4000000000,9145.5591841446,29997.4341239942,994.5728226234,0.0008912034,7.6031289929,0.0128993878,-1.4328364915,-82.1371237194,0.0761307471,4.3641829559,0.0000000001,0.0000000001,3.9113965104,0.0000000005,0.0000000004,12.8293805543,0.0768581735,0.1375576848,0.2126291836,4.4058825577,7.8854723786,12.1889340931,0.1355419032,0.3764514950,0.5100847604,7.7699180162,21.5800220037,29.2405276671
0.4100000000,9145.5195812548,29997.3042265159,994.5733803724,0.0008912077,7.7932072500,0.0132218652,-1.4294448769,-81.9426999469,0.0781778671,4.4815337801,0.0000000001,0.0000000001,4.0091814398,0.0000000005,0.0000000004,13.1501151227,0.0789621749,0.1409168304,0.2180588090,4.5264941000,8.0780348642,12.5001865054,0.1345442704,0.3770391667,0.5097794992,7.7127288740,21.6137101951,29.2230286187
0.4200000000,9145.4790005158,29997.1711216918,994.5739518930,0.0008912120,7.9832855095,0.0135443419,-1.4260567583,-81.7484765933,0.0802311426,4.5992374762,0.0000000001,0.0000000001,4.1069663705,0.0000000005,0.0000000004,13.4708496951,0.0810752533,0.1442707086,0.2234955714,4.6476259882,8.2702953959,12.8118480404,0.1335456840,0.3776221468,0.5094760235,7.6554850690,21.6471294362,29.2056319204
0.4300000000,9145.4374419274,29997.0348095220,994.5745371852,0.0008912165,8.1733637715,0.0138668182,-1.4226721841,-81.5544564116,0.0822905157,4.7172907082,0.0000000001,0.0000000001,4.2047513023,0.0000000005,0.0000000004,13.7915842717,0.0831974257,0.1476192181,0.2289395812,4.7692791778,8.4622481703,13.1239250349,0.1325461548,0.3782004383,0.5091743461,7.5981872166,21.6802799046,29.1883383119
0.4400000000,9145.3949054897,29996.8952900063,994.5751362490,0.0008912211,8.3634420360,0.0141892938,-1.4192912020,-81.3606421504,0.0843559283,4.8356901599,0.0000000001,0.0000000001,4.3025362355,0.0000000005,0.0000000004,14.1123188525,0.0853287088,0.1509622574,0.2343909487,4.8914546422,8.6538873659,13.4364238096,0.1315456934,0.3787740444,0.5088744799,7.5408359283,21.7131617793,29.1711485272
0.4500000000,9145.3513912027,29996.7525631449,994.5757490844,0.0008912258,8.5535203031,0.0145117689,-1.4159138599,-81.1670365542,0.0864273231,4.9544325352,0.0000000001,0.0000000001,4.4003211700,0.0000000005,0.0000000004,14.4330534376,0.0874691199,0.1542997246,0.2398497839,5.0141533716,8.8452071430,13.7493506687,0.1305443105,0.3793429681,0.5085764375,7.4834318115,21.7457752404,29.1540632944
0.4600000000,9145.3068990663,29996.6066289376,994.5763756914,0.0008912305,8.7435985728,0.0148342434,-1.4125402057,-80.9736423637,0.0885046428,5.0735145576,0.0000000001,0.0000000001,4.4981061059,0.0000000005,0.0000000004,14.7537880272,0.0896186767,0.1576315176,0.2453161965,5.1373763723,9.0362016436,14.0627118990,0.1295420165,0.3799072126,0.5082802315,7.4259754695,21.7781204691,29.1370833360
0.4700000000,9145.2614290806,29996.4574873843,994.5770160699,0.0008912354,8.9336768452,0.0151567173,-1.4091702871,-80.7804623168,0.0905878307,5.1929329712,0.0000000001,0.0000000001,4.5958910431,0.0000000005,0.0000000004,15.0745226213,0.0917773970,0.1609575337,0.2507902958,5.2611246663,9.2268649913,14.3765137702,0.1285388220,0.3804667812,0.5079858745,7.3684675015,21.8101976478,29.1202093683
0.4800000000,9145.2149812455,29996.3051384851,994.5776702200,0.0008912404,9.1237551203,0.0154791905,-1.4058041518,-80.5874991485,0.0926768303,5.3126845400,0.0000000001,0.0000000001,4.6936759817,0.0000000005,0.0000000005,15.3952572201,0.0939452987,0.1642776703,0.2562721909,5.3853992899,9.4171912908,14.6907625334,0.1275347372,0.3810216770,0.5076933789,7.3109085027,21.8420069601,29.1034421021
0.4900000000,9145.1675555610,29996.1495822399,994.5783381417,0.0008912455,9.3138333983,0.0158016631,-1.4024418476,-80.3947555921,0.0947715855,5.4327660488,0.0000000001,0.0000000001,4.7914609218,0.0000000005,0.0000000005,15.7159918235,0.0961224003,0.1675918241,0.2617619905,5.5102012936,9.6071746280,15.0054644213,0.1265297726,0.3815719032,0.5074027569,7.2532990641,21.8735485904,29.0867822424
0.5000000000,9145.1191520270,29995.9908186486,994.5790198350,0.0008912508,9.5039116790,0.0161241350,-1.3990834219,-80.2022343791,0.0968720406,5.5531743028,0.0000000001,0.0000000001,4.8892458634,0.0000000005,0.0000000005,16.0367264318,0.0983087204,0.1708998916,0.2672598030,5.6355317406,9.7968090700,15.3206256474,0.1255239383,0.3821174631,0.5071140207,7.1956397730,21.9048227240,29.0702304880
0.5100000000,9145.0697706437,29995.8288477113,994.5797152999,0.0008912561,9.6939899628,0.0164466063,-1.3957289226,-80.0099382403,0.0989781402,5.6739061279,0.0000000001,0.0000000001,4.9870308064,0.0000000005,0.0000000005,16.3574610451,0.1005042776,0.1742017689,0.2727657364,5.7613917067,9.9860886644,15.6362524055,0.1245172445,0.3826583599,0.5068271825,7.1379312124,21.9358295472,29.0537875324
0.5200000000,9145.0194114109,29995.6636694277,994.5804245364,0.0008912615,9.8840682494,0.0167690769,-1.3923783972,-79.8178699056,0.1010898294,5.7949583707,0.0000000002,0.0000000001,5.0848157510,0.0000000005,0.0000000005,16.6781956633,0.1027090909,0.1774973520,0.2782798985,5.8877822789,10.1750074398,15.9523508687,0.1235097013,0.3831945969,0.5065422542,7.0801739614,21.9665692470,29.0374540628
0.5300000000,9144.9680743287,29995.4952837980,994.5811475444,0.0008912670,10.0741465392,0.0170915469,-1.3890318934,-79.6260321051,0.1032070533,5.9163278990,0.0000000002,0.0000000002,5.1826006972,0.0000000005,0.0000000005,16.9989302867,0.1049231795,0.1807865363,0.2838023965,6.0147045546,10.3635594052,16.2689271895,0.1225013188,0.3837261773,0.5062592477,7.0223685952,21.9970420113,29.0212307608
0.5400000000,9144.9157593969,29995.3236908220,994.5818843241,0.0008912727,10.2642248320,0.0174140161,-1.3856894587,-79.4344275696,0.1053297579,6.0380116013,0.0000000002,0.0000000002,5.2803856449,0.0000000005,0.0000000005,17.3196649153,0.1071465626,0.1840692169,0.2893333375,6.1421596413,10.5517385500,16.5859874987,0.1214921070,0.3842531045,0.5059781748,6.9645156851,22.0272480285,29.0051183021
0.5500000000,9144.8624666158,29995.1488904997,994.5826348753,0.0008912784,10.4543031280,0.0177364846,-1.3823511409,-79.2430590306,0.1074578892,6.1600063875,0.0000000002,0.0000000002,5.3781705943,0.0000000005,0.0000000005,17.6403995492,0.1093792599,0.1873452887,0.2948728279,6.2701486548,10.7395388440,16.9035379048,0.1204820756,0.3847753817,0.5056990472,6.9066157984,22.0571874879,28.9891173567
0.5600000000,9144.8081959851,29994.9708828310,994.5833991981,0.0008912842,10.6443814272,0.0180589523,-1.3790169875,-79.0519292211,0.1095913936,6.2823091884,0.0000000002,0.0000000002,5.4759555453,0.0000000005,0.0000000005,17.9611341886,0.1116212908,0.1906146461,0.3004209739,6.3986727193,10.9269542372,17.2215844935,0.1194712346,0.3852930123,0.5054218765,6.8486694984,22.0868605792,28.9732285885
0.5700000000,9144.7529475048,29994.7896678159,994.5841772925,0.0008912902,10.8344597296,0.0183814193,-1.3756870464,-78.8610408765,0.1117302180,6.4049169564,0.0000000002,0.0000000002,5.5737404980,0.0000000005,0.0000000005,18.2818688334,0.1138726751,0.1938771833,0.3059778814,6.5277329655,11.1139786594,17.5401333270,0.1184595937,0.3858059996,0.5051466741,6.7906773448,22.1162674926,28.9574526558
0.5800000000,9144.6967211751,29994.6052454543,994.5849691585,0.0008912962,11.0245380354,0.0187038856,-1.3723613653,-78.6703967341,0.1138743096,6.5278266650,0.0000000002,0.0000000002,5.6715254524,0.0000000005,0.0000000006,18.6026034839,0.1161334326,0.1971327939,0.3115436555,6.6573305306,11.3006060207,17.8591904433,0.1174471626,0.3863143469,0.5048734515,6.7326398930,22.1454084190,28.9417902108
0.5900000000,9144.6395169958,29994.4176157462,994.5857747961,0.0008913024,11.2146163446,0.0190263511,-1.3690399919,-78.4799995347,0.1160236159,6.6510353092,0.0000000002,0.0000000002,5.7693104086,0.0000000005,0.0000000006,18.9233381401,0.1184035833,0.2003813715,0.3171184013,6.7874665565,11.4868302108,18.1787618554,0.1164339509,0.3868180575,0.5046022198,6.6745576951,22.1742835495,28.9262419002
0.6000000000,9144.5813349669,29994.2267786915,994.5865942052,0.0008913087,11.4046946572,0.0193488158,-1.3657229742,-78.2898520223,0.1181780850,6.7745399056,0.0000000002,0.0000000002,5.8670953665,0.0000000005,0.0000000006,19.2440728021,0.1206831471,0.2036228090,0.3227022231,6.9181421895,11.6726450991,18.4988535506,0.1154199682,0.3873171348,0.5043329904,6.6164312989,22.2028930756,28.9108083645
0.6100000000,9144.5221750885,29994.0327342901,994.5874273860,0.0008913150,11.5947729733,0.0196712797,-1.3624103600,-78.0999569449,0.1203376651,6.8983374923,0.0000000002,0.0000000002,5.9648803262,0.0000000005,0.0000000006,19.5648074700,0.1229721441,0.2068569991,0.3282952249,7.0493585789,11.8580445349,18.8194714902,0.1144052240,0.3878115821,0.5040657742,6.5582612487,22.2312371892,28.8954902385
0.6200000000,9144.4620373604,29993.8354825421,994.5882743383,0.0008913215,11.7848512930,0.0199937428,-1.3591021975,-77.9103170549,0.1225023050,7.0224251289,0.0000000002,0.0000000002,6.0626652878,0.0000000005,0.0000000006,19.8855421439,0.1252705944,0.2100838343,0.3338975103,7.1811168764,12.0430223468,19.1406216078,0.1133897277,0.3883014028,0.5038005822,6.5000480848,22.2593160824,28.8802881512
0.6300000000,9144.4009217827,29993.6350234472,994.5891350623,0.0008913281,11.9749296163,0.0203162051,-1.3557985347,-77.7209351097,0.1246719538,7.1467998967,0.0000000002,0.0000000002,6.1604502512,0.0000000005,0.0000000006,20.2062768240,0.1275785181,0.2133032064,0.3395091822,7.3134182345,12.2275723430,19.4623098096,0.1123734887,0.3887866002,0.5035374253,6.4417923440,22.2871299475,28.8652027258
0.6400000000,9144.3388283554,29993.4313570056,994.5900095578,0.0008913348,12.1650079433,0.0206386665,-1.3524994198,-77.5318138720,0.1268465608,7.2714588987,0.0000000002,0.0000000002,6.2582352165,0.0000000005,0.0000000006,20.5270115102,0.1298959353,0.2165150072,0.3451303433,7.4462638061,12.4116883111,19.7845419729,0.1113565162,0.3892671777,0.5032763143,6.3834945593,22.3146789770,28.8502345794
0.6500000000,9144.2757570784,29993.2244832170,994.5908978249,0.0008913416,12.3550862740,0.0209611271,-1.3492049010,-77.3429561104,0.1290260760,7.3963992598,0.0000000002,0.0000000002,6.3560201838,0.0000000005,0.0000000006,20.8477462028,0.1322228661,0.2197191279,0.3507610955,7.5796547429,12.5953640181,20.1073239454,0.1103388195,0.3897431387,0.5030172599,6.3251552597,22.3419633636,28.8353843235
0.6600000000,9144.2117079517,29993.0144020815,994.5917998636,0.0008913484,12.5451646085,0.0212835868,-1.3459150269,-77.1543645999,0.1312104495,7.5216181263,0.0000000002,0.0000000002,6.4538051530,0.0000000005,0.0000000006,21.1684809017,0.1345593305,0.2229154593,0.3564015403,7.7135921947,12.7785932102,20.4306615447,0.1093204078,0.3902144865,0.5027602725,6.2667749709,22.3689832997,28.8206525636
0.6700000000,9144.1466809753,29992.8011135990,994.5927156738,0.0008913554,12.7352429469,0.0216060456,-1.3426298459,-76.9660421221,0.1333996321,7.6471126665,0.0000000002,0.0000000002,6.5515901241,0.0000000005,0.0000000006,21.4892156072,0.1369053486,0.2261038921,0.3620517786,7.8480773082,12.9613696129,20.7545605570,0.1083012902,0.3906812244,0.5025053627,6.2083542148,22.3957389780,28.8060398995
0.6800000000,9144.0806761492,29992.5846177693,994.5936452557,0.0008913626,12.9253212892,0.0219285036,-1.3393494067,-76.7779914659,0.1355935746,7.7728800704,0.0000000002,0.0000000002,6.6493750973,0.0000000005,0.0000000007,21.8099503192,0.1392609403,0.2292843165,0.3677119109,7.9831112260,13.1436869309,21.0790267367,0.1072814757,0.3911433559,0.5022525408,6.1498935097,22.4222305912,28.7915469250
0.6900000000,9144.0136934733,29992.3649145926,994.5945886092,0.0008913698,13.1153996354,0.0222509606,-1.3360737580,-76.5902154282,0.1377922284,7.8989175498,0.0000000002,0.0000000002,6.7471600726,0.0000000005,0.0000000007,22.1306850380,0.1416261254,0.2324566221,0.3733820368,8.1186950851,13.3255388481,21.4040658050,0.1062609732,0.3916008842,0.5020018171,6.0913933701,22.4484583316,28.7771742281
0.7000000000,9143.9457329477,29992.1420040686,994.5955457342,0.0008913771,13.3054779857,0.0225734168,-1.3328029489,-76.4027168136,0.1399955452,8.0252223385,0.0000000002,0.0000000002,6.8449450499,0.0000000005,0.0000000007,22.4514197636,0.1440009236,0.2356206986,0.3790622557,8.2548300161,13.5069190274,21.7296834494,0.1052397918,0.3920538128,0.5017532017,6.0328543071,22.4744223916,28.7629223909
0.7100000000,9143.8767945723,29991.9158861973,994.5965166309,0.0008913845,13.4955563401,0.0228958720,-1.3295370283,-76.2154984356,0.1422034773,8.1517916917,0.0000000002,0.0000000002,6.9427300293,0.0000000005,0.0000000007,22.7721544960,0.1463853546,0.2387764349,0.3847526662,8.3915171422,13.6878211112,22.0558853228,0.1042179402,0.3925021450,0.5015067047,5.9742768282,22.5001229633,28.7487919899
0.7200000000,9143.8068783471,29991.6865609786,994.5975012991,0.0008913920,13.6856346986,0.0232183262,-1.3262760455,-76.0285631169,0.1444159770,8.2786228867,0.0000000002,0.0000000002,7.0405150108,0.0000000005,0.0000000007,23.0928892355,0.1487794377,0.2419237199,0.3904533662,8.5287575774,13.8682387206,22.3826770422,0.1031954273,0.3929458842,0.5012623361,5.9156614374,22.5255602386,28.7347835955
0.7300000000,9143.7359842721,29991.4540284125,994.5984997389,0.0008913997,13.8757130613,0.0235407795,-1.3230200499,-75.8419136894,0.1466329973,8.4057132225,0.0000000002,0.0000000002,7.1382999945,0.0000000005,0.0000000007,23.4136239820,0.1511831923,0.2450624418,0.3961644531,8.6665524259,14.0481654560,22.7100641879,0.1021722617,0.3933850336,0.5010201056,5.8570086351,22.5507344089,28.7208977723
0.7400000000,9143.6641123472,29991.2182884990,994.5995119503,0.0008914074,14.0657914283,0.0238632318,-1.3197690911,-75.6555529952,0.1488544915,8.5330600198,0.0000000002,0.0000000002,7.2360849804,0.0000000005,0.0000000007,23.7343587357,0.1535966374,0.2481924888,0.4018860235,8.8049027807,14.2275948970,23.0380523028,0.1011484522,0.3938195966,0.5007800230,5.7983189183,22.5756456655,28.7071350792
0.7500000000,9143.5912625725,29990.9793412378,994.6005379333,0.0008914152,14.2558697996,0.0241856832,-1.3165232189,-75.4694838866,0.1510804131,8.6606606211,0.0000000002,0.0000000002,7.3338699685,0.0000000005,0.0000000007,24.0550934968,0.1560197918,0.2513137483,0.4076181735,8.9438097222,14.4065206022,23.3666468909,0.1001240074,0.3942495766,0.5005420981,5.7395927804,22.6002941993,28.6934960690
0.7600000000,9143.5174349479,29990.7371866290,994.6015776879,0.0008914232,14.4459481753,0.0245081335,-1.3132824832,-75.2837092271,0.1533107161,8.7885123905,0.0000000002,0.0000000002,7.4316549589,0.0000000006,0.0000000007,24.3758282652,0.1584526742,0.2544261077,0.4133609985,9.0832743172,14.5849361097,23.6958534168,0.0990989357,0.3946749768,0.5003063403,5.6808307116,22.6246802006,28.6799812889
0.7700000000,9143.4426294733,29990.4918246725,994.6026312141,0.0008914312,14.6360265554,0.0248305829,-1.3100469341,-75.0982318911,0.1555453551,8.9166127140,0.0000000002,0.0000000002,7.5294399516,0.0000000006,0.0000000008,24.6965630411,0.1608953029,0.2575294539,0.4191145930,9.2232976173,14.7628349364,24.0256773041,0.0980732458,0.3950958007,0.5000727590,5.6220331985,22.6488038593,28.6665912801
0.7800000000,9143.3668461488,29990.2432553682,994.6036985119,0.0008914394,14.8261049401,0.0251530312,-1.3068166220,-74.9130547648,0.1577842848,9.0449589989,0.0000000002,0.0000000002,7.6272249465,0.0000000006,0.0000000008,25.0172978246,0.1633476959,0.2606236734,0.4248790509,9.3638806579,14.9402105787,24.3561239348,0.0970469460,0.3955120514,0.4998413636,5.5632007244,22.6726653646,28.6533265782
0.7900000000,9143.2900849744,29989.9914787160,994.6047795813,0.0008914477,15.0161833292,0.0254754784,-1.3035915975,-74.7281807469,0.1600274602,9.1735486743,0.0000000002,0.0000000002,7.7250099438,0.0000000006,0.0000000008,25.3380326158,0.1658098711,0.2637086525,0.4306544653,9.5050244570,15.1170565124,24.6871986481,0.0960200446,0.3959237322,0.4996121634,5.5043337693,22.6962649055,28.6401877128
0.8000000000,9143.2123459499,29989.7364947158,994.6058744222,0.0008914560,15.2062617230,0.0257979247,-1.3003719113,-74.5436127481,0.1622748370,9.3023791908,0.0000000002,0.0000000002,7.8227949435,0.0000000006,0.0000000008,25.6587674148,0.1682818458,0.2667842769,0.4364409287,9.6467300134,15.2933661926,25.0189067392,0.0949925501,0.3963308466,0.4993851675,5.4454328097,22.7196026699,28.6271752075
0.8100000000,9143.1336290755,29989.4783033677,994.6069830348,0.0008914645,15.3963401215,0.0261203698,-1.2971576144,-74.3593536925,0.1645263710,9.4314480205,0.0000000002,0.0000000002,7.9205799456,0.0000000006,0.0000000008,25.9795022216,0.1707636371,0.2698504322,0.4422385325,9.7889983056,15.4691330538,25.3512534581,0.0939644707,0.3967333976,0.4991603849,5.3864983190,22.7426788455,28.6142895805
0.8200000000,9143.0539343510,29989.2169046714,994.6081054190,0.0008914731,15.5864185247,0.0264428139,-1.2939487581,-74.1754065175,0.1667820186,9.5607526567,0.0000000002,0.0000000002,8.0183649501,0.0000000006,0.0000000008,26.3002370364,0.1732552617,0.2729070033,0.4480473677,9.9318302906,15.6443505102,25.6842440087,0.0929358145,0.3971313887,0.4989378246,5.3275307673,22.7654936188,28.6015313438
0.8300000000,9142.9732617765,29988.9522986269,994.6092415747,0.0008914818,15.7764969326,0.0267652569,-1.2907453939,-73.9917741744,0.1690417363,9.6902906143,0.0000000002,0.0000000003,8.1161499571,0.0000000006,0.0000000008,26.6209718594,0.1757567360,0.2759538752,0.4538675241,10.0752269024,15.8190119557,26.0178835476,0.0919065897,0.3975248230,0.4987174953,5.2685306213,22.7880471759,28.5889010038
0.8400000000,9142.8916113519,29988.6844852342,994.6103915021,0.0008914906,15.9665753455,0.0270876988,-1.2875475735,-73.8084596286,0.1713054812,9.8200594293,0.0000000002,0.0000000003,8.2139349666,0.0000000006,0.0000000008,26.9417066904,0.1782680757,0.2789909322,0.4596990909,10.2191890503,15.9931107637,26.3521771827,0.0908768045,0.3979137037,0.4984994058,5.2094983446,22.8103397021,28.5763990609
0.8500000000,9142.8089830772,29988.4134644931,994.6115552010,0.0008914995,16.1566537632,0.0274101396,-1.2843553489,-73.6254658602,0.1735732106,9.9500566589,0.0000000002,0.0000000003,8.3117199786,0.0000000006,0.0000000008,27.2624415298,0.1807892962,0.2820180584,0.4655421562,10.3637176178,16.1666402879,26.6871299721,0.0898464667,0.3982980341,0.4982835648,5.1504343978,22.8323713815,28.5640260099
0.8600000000,9142.7253769523,29988.1392364036,994.6127326715,0.0008915085,16.3467321859,0.0277325792,-1.2811687723,-73.4427958646,0.1758448824,10.0802798815,0.0000000002,0.0000000003,8.4095049932,0.0000000006,0.0000000009,27.5831763776,0.1833204126,0.2850351374,0.4713968074,10.5088134613,16.3395938617,27.0227469231,0.0888155845,0.3986778174,0.4980699808,5.0913392381,22.8541423976,28.5517823395
0.8700000000,9142.6407929773,29987.8618009655,994.6139239137,0.0008915176,16.5368106136,0.0280550177,-1.2779878963,-73.2604526523,0.1781204546,10.2107266965,0.0000000002,0.0000000003,8.5072900103,0.0000000006,0.0000000009,27.9039112338,0.1858614392,0.2880420526,0.4772631311,10.6544774081,16.5119647989,27.3590329905,0.0877841657,0.3990530567,0.4978586622,5.0322133195,22.8756529331,28.5396685330
0.8800000000,9142.5552311521,29987.5811581789,994.6151289274,0.0008915268,16.7268890464,0.0283774550,-1.2748127736,-73.0784392501,0.1803998857,10.3413947241,0.0000000002,0.0000000003,8.6050750300,0.0000000006,0.0000000009,28.2246460986,0.1884123900,0.2910386871,0.4831412125,10.8007102555,16.6837463935,27.6959930759,0.0867522182,0.3994237553,0.4976496173,4.9730570933,22.8969031693,28.5276850675
0.8900000000,9142.4686914767,29987.2973080435,994.6163477127,0.0008915361,16.9169674843,0.0286998912,-1.2716434573,-72.8967587006,0.1826831347,10.4722816054,0.0000000002,0.0000000003,8.7028600524,0.0000000006,0.0000000009,28.5453809720,0.1909732783,0.2940249235,0.4890311365,10.9475127687,16.8549319200,28.0336320260,0.0857197498,0.3997899162,0.4974428543,4.9138710075,22.9178932868,28.5158324146
0.9000000000,9142.3811739510,29987.0102505594,994.6175802696,0.0008915455,17.1070459275,0.0290223262,-1.2684800009,-72.7154140636,0.1849701606,10.6033850023,0.0000000002,0.0000000003,8.8006450775,0.0000000006,0.0000000009,28.8661158542,0.1935441169,0.2970006442,0.4949329863,11.0948856799,17.0255146337,28.3719546312,0.0846867683,0.4001515427,0.4972383815,4.8546555069,22.9386234651,28.5041110398
0.9100000000,9142.2926785751,29986.7199857264,994.6188265982,0.0008915550,17.2971243759,0.0293447600,-1.2653224579,-72.5344084157,0.1872609231,10.7347025971,0.0000000002,0.0000000003,8.8984301053,0.0000000006,0.0000000009,29.1868507453,0.1961249179,0.2999657311,0.5008468448,11.2428296863,17.1954877708,28.7109656247,0.0836532814,0.4005086377,0.4970362067,4.7954110336,22.9590938826,28.4925214030
0.9200000000,9142.2032053489,29986.4265135445,994.6200866983,0.0008915647,17.4872028296,0.0296671926,-1.2621708824,-72.3537448509,0.1895553821,10.8662320927,0.0000000002,0.0000000003,8.9962151358,0.0000000006,0.0000000009,29.5075856454,0.1987156928,0.3029200660,0.5067727933,11.3913454488,17.3648445484,29.0506696810,0.0826192967,0.4008612045,0.4968363379,4.7361380266,22.9793047164,28.4810639584
0.9300000000,9142.1127542724,29986.1298340135,994.6213605700,0.0008915744,17.6772812886,0.0299896239,-1.2590253286,-72.1734264812,0.1918534978,10.9979712125,0.0000000002,0.0000000003,9.0940001691,0.0000000006,0.0000000009,29.8283205545,0.2013164526,0.3058635302,0.5127109124,11.5404335903,17.5335781650,29.3910714143,0.0815848219,0.4012092460,0.4966387830,4.6768369219,22.9992561428,28.4697391541
0.9400000000,9142.0213253455,29985.8299471333,994.6226482133,0.0008915842,17.8673597531,0.0303120541,-1.2558858512,-71.9934564369,0.1941552310,11.1299176999,0.0000000002,0.0000000003,9.1917852051,0.0000000006,0.0000000009,30.1490554728,0.2039272074,0.3087960047,0.5186612816,11.6900946939,17.7016818009,29.7321753774,0.0805498644,0.4015527654,0.4964435497,4.6175081528,23.0189483364,28.4585474327
0.9500000000,9141.9289185683,29985.5268529040,994.6239496282,0.0008915942,18.0574382231,0.0306344829,-1.2527525050,-71.8138378669,0.1964605426,11.2620693187,0.0000000002,0.0000000003,9.2895702440,0.0000000006,0.0000000010,30.4697904004,0.2065479667,0.3117173703,0.5246239790,11.8403293018,17.8691486177,30.0739860601,0.0795144319,0.4018917657,0.4962506455,4.5581521494,23.0383814709,28.4474892310
0.9600000000,9141.8355339406,29985.2205513253,994.6252648147,0.0008916042,18.2475166987,0.0309569105,-1.2496253454,-71.6345739389,0.1987693939,11.3944238524,0.0000000002,0.0000000003,9.3873552858,0.0000000006,0.0000000010,30.7905253373,0.2091787392,0.3146275074,0.5305990820,11.9911379133,18.0359717594,30.4165078881,0.0784785318,0.4022262498,0.4960600780,4.4987693394,23.0575557187,28.4365649798
0.9700000000,9141.7411714626,29984.9110423972,994.6265937728,0.0008916144,18.4375951798,0.0312793369,-1.2465044279,-71.4556678404,0.2010817466,11.5269791045,0.0000000002,0.0000000003,9.4851403304,0.0000000006,0.0000000010,31.1112602837,0.2118195327,0.3175262959,0.5365866666,12.1425209833,18.2021443523,30.7597452210,0.0774421715,0.4025562207,0.4958718546,4.4393601472,23.0764712506,28.4257751044
0.9800000000,9141.6458311340,29984.5983261196,994.6279365025,0.0008916247,18.6276736666,0.0316017619,-1.2433898085,-71.2771227784,0.2033975628,11.6597328982,0.0000000002,0.0000000003,9.5829253779,0.0000000006,0.0000000010,31.4319952396,0.2144703545,0.3204136158,0.5425868077,12.2944789203,18.3676595053,31.1037023514,0.0764053582,0.4028816815,0.4956859826,4.3799249948,23.0951282365,28.4151200241
0.9900000000,9141.5495129550,29984.2824024924,994.6292930038,0.0008916350,18.8177521592,0.0319241857,-1.2402815434,-71.0989419802,0.2057168048,11.7926830763,0.0000000002,0.0000000003,9.6807104284,0.0000000006,0.0000000010,31.7527302052,0.2171312108,0.3232893465,0.5485995789,12.4470120852,18.5325103100,31.4483835032,0.0753680995,0.4032026350,0.4955024693,4.3204643012,23.1135268443,28.4046001526
1.0000000000,9141.4522169255,29983.9632715155,994.6306632767,0.0008916455,19.0078306575,0.0322466081,-1.2371796894,-70.9211286934,0.2080394353,11.9258275007,0.0000000002,0.0000000003,9.7784954819,0.0000000006,0.0000000010,32.0734651805,0.2198021071,0.3261533672,0.5546250527,12.6001207894,18.6966898416,31.7937928299,0.0743304024,0.4035190841,0.4953213218,4.2609784829,23.1316672411,28.3942158977
1.0100000000,9141.3539430454,29983.6409331888,994.6320473213,0.0008916561,19.1979091616,0.0325690292,-1.2340843035,-70.7436861869,0.2103654174,12.0591640530,0.0000000002,0.0000000003,9.8762805383,0.0000000006,0.0000000010,32.3942001657,0.2224830479,0.3290055569,0.5606633003,12.7538052930,18.8601911586,32.1399344133,0.0732922743,0.4038310318,0.4951425470,4.2014679536,23.1495495920,28.3839676616
1.0200000000,9141.2546913147,29983.3153875121,994.6334451374,0.0008916668,19.3879876717,0.0328914489,-1.2309954430,-70.5666177505,0.2126947144,12.1926906335,0.0000000002,0.0000000003,9.9740655978,0.0000000006,0.0000000010,32.7149351609,0.2251740368,0.3318457941,0.5667143917,12.9080658030,19.0230073035,32.4868122623,0.0722537223,0.4041384808,0.4949661519,4.1419331242,23.1671740609,28.3738558406
1.0300000000,9141.1544617334,29982.9866344855,994.6348567251,0.0008916776,19.5780661877,0.0332138673,-1.2279131657,-70.3899266958,0.2150272900,12.3264051616,0.0000000002,0.0000000003,10.0718506604,0.0000000006,0.0000000011,33.0356701661,0.2278750765,0.3346739572,0.5727783954,13.0629024719,19.1851313030,32.8344303105,0.0712147535,0.4044414341,0.4947921433,4.0823744034,23.1845408101,28.3638808254
1.0400000000,9141.0532543015,29982.6546741088,994.6362820844,0.0008916885,19.7681447097,0.0335362844,-1.2248375298,-70.2136163565,0.2173631084,12.4603055753,0.0000000002,0.0000000003,10.1696357261,0.0000000006,0.0000000011,33.3564051814,0.2305861686,0.3374899243,0.5788553788,13.2183153954,19.3465561687,33.1827924155,0.0701753750,0.4047398944,0.4946205279,4.0227921969,23.2016500003,28.3540430008
1.0500000000,9140.9510690189,29982.3195063819,994.6377212153,0.0008916995,19.9582232378,0.0338587000,-1.2217685938,-70.0376900884,0.2197021337,12.5943898313,0.0000000002,0.0000000003,10.2674207948,0.0000000006,0.0000000011,33.6771402070,0.2333073138,0.3402935732,0.5849454078,13.3743046114,19.5072748971,33.5319023568,0.0691355938,0.4050338646,0.4944513123,3.9631869080,23.2185017906,28.3443427460
1.0600000000,9140.8479058856,29981.9811313046,994.6391741178,0.0008917106,20.1483017721,0.0341811142,-1.2187064166,-69.8621512704,0.2220443308,12.7286559046,0.0000000002,0.0000000003,10.3652058668,0.0000000006,0.0000000011,33.9978752430,0.2360385117,0.3430847815,0.5910485469,13.5308700972,19.6672804700,33.8817638343,0.0680954170,0.4053233472,0.4942845031,3.9035589376,23.2350963385,28.3347804344
1.0700000000,9140.7437649015,29981.6395488770,994.6406407920,0.0008917218,20.3383803125,0.0345035271,-1.2156510576,-69.6870033041,0.2243896645,12.8631017884,0.0000000002,0.0000000003,10.4629909419,0.0000000006,0.0000000011,34.3186102894,0.2387797609,0.3458634266,0.5971648593,13.6880117686,19.8265658553,34.2323804668,0.0670548515,0.4056083452,0.4941201067,3.8439086839,23.2514337997,28.3253564335
1.0800000000,9140.6386460667,29981.2947590988,994.6421212377,0.0008917331,20.5284588591,0.0348259385,-1.2126025766,-69.5122496148,0.2267381003,12.9977254939,0.0000000002,0.0000000003,10.5607760202,0.0000000006,0.0000000011,34.6393453463,0.2415310587,0.3486293855,0.6032944066,13.8457294776,19.9851240072,34.5837557903,0.0660139041,0.4058888611,0.4939581293,3.7842365429,23.2675143284,28.3160711054
1.0900000000,9140.5325493811,29980.9467619700,994.6436154550,0.0008917445,20.7185374121,0.0351483485,-1.2095610337,-69.3378936515,0.2290896037,13.1325250500,0.0000000002,0.0000000003,10.6585611018,0.0000000006,0.0000000011,34.9600804139,0.2442924014,0.3513825350,0.6094372490,14.0040230105,20.1429478667,34.9358932564,0.0649725818,0.4061648976,0.4937985772,3.7245429079,23.2833380769,28.3069248063
1.1000000000,9140.4254748447,29980.5955574905,994.6451234440,0.0008917560,20.9086159715,0.0354707570,-1.2065264895,-69.1639388874,0.2314441406,13.2674985034,0.0000000002,0.0000000003,10.7563461866,0.0000000006,0.0000000011,35.2808154922,0.2470637842,0.3541227519,0.6155934454,14.1628920864,20.3000303620,35.2887962305,0.0639308914,0.4064364573,0.4936414565,3.6648281701,23.2989051958,28.2979178867
1.1100000000,9140.3174224574,29980.2411456602,994.6466452045,0.0008917677,21.0986945372,0.0357931641,-1.2034990050,-68.9903888202,0.2338016772,13.4026439180,0.0000000002,0.0000000004,10.8541312748,0.0000000006,0.0000000012,35.6015505814,0.2498452009,0.3568499125,0.6217630527,14.3223363550,20.4563644090,35.6424679904,0.0628888396,0.4067035429,0.4934867732,3.6050927182,23.3142158339,28.2890506912
1.1200000000,9140.2083922192,29979.8835264789,994.6481807367,0.0008917794,21.2887731095,0.0361155697,-1.2004786416,-68.8172469724,0.2361621802,13.5379593749,0.0000000002,0.0000000004,10.9519163663,0.0000000006,0.0000000012,35.9222856814,0.2526366441,0.3595638930,0.6279461267,14.4823553950,20.6119429121,35.9969117241,0.0618464333,0.4069661569,0.4933345332,3.5453369387,23.3292701382,28.2803235591
1.1300000000,9140.0983841300,29979.5226999465,994.6497300404,0.0008917913,21.4788516882,0.0364379738,-1.1974654613,-68.6445168918,0.2385256163,13.6734429724,0.0000000002,0.0000000004,11.0497014611,0.0000000006,0.0000000012,36.2430207926,0.2554381053,0.3622645696,0.6341427214,14.6429487121,20.7667587642,36.3521305288,0.0608036790,0.4072243018,0.4931847424,3.4855612156,23.3440682538,28.2717368236
1.1400000000,9139.9873981899,29979.1586660630,994.6512931158,0.0008918032,21.6689302736,0.0367603764,-1.1944595264,-68.4722021515,0.2408919526,13.8090928252,0.0000000002,0.0000000004,11.1474865594,0.0000000006,0.0000000012,36.5637559148,0.2582495745,0.3649518179,0.6403528892,14.8041157368,20.9208048478,36.7081274088,0.0597605835,0.4074779801,0.4930374064,3.4257659308,23.3586103240,28.2632908125
1.1500000000,9139.8754343988,29978.7914248282,994.6528699628,0.0008918153,21.8590088657,0.0370827775,-1.1914608997,-68.3003063509,0.2432611566,13.9449070649,0.0000000002,0.0000000004,11.2452716611,0.0000000006,0.0000000012,36.8844910483,0.2610710405,0.3676255137,0.6465766809,14.9658558232,21.0740740352,37.0649052735,0.0587171533,0.4077271943,0.4928925309,3.3659514641,23.3728964900,28.2549858476
1.1600000000,9139.7624927567,29978.4209762420,994.6544605814,0.0008918274,22.0490874644,0.0374051770,-1.1884696443,-68.1288331152,0.2456331959,14.0808838390,0.0000000002,0.0000000004,11.3430567662,0.0000000006,0.0000000012,37.2052261931,0.2639024905,0.3702855325,0.6528141454,15.1281682463,21.2265591890,37.4224669363,0.0576733951,0.4079719469,0.4927501214,3.3061181931,23.3869268912,28.2468222452
1.1700000000,9139.6485732635,29978.0473203043,994.6560649715,0.0008918397,22.2391660699,0.0377275751,-1.1854858241,-67.9577860964,0.2480080384,14.2170213113,0.0000000002,0.0000000004,11.4408418748,0.0000000006,0.0000000012,37.5259613494,0.2667439106,0.3729317496,0.6590653303,15.2910522006,21.3782531633,37.7808151124,0.0566293155,0.4082122402,0.4926101833,3.2462664930,23.4007016652,28.2388003159
1.1800000000,9139.5336759192,29977.6704570150,994.6576831333,0.0008918520,22.4292446823,0.0380499715,-1.1825095032,-67.7871689734,0.2503856525,14.3533176614,0.0000000002,0.0000000004,11.5386269869,0.0000000006,0.0000000012,37.8466965172,0.2695952853,0.3755640402,0.6653302811,15.4545067981,21.5291488034,38.1399524173,0.0555849209,0.4084480765,0.4924727219,3.1863967373,23.4142209472,28.2309203647
1.1900000000,9139.4178007238,29977.2903863739,994.6593150668,0.0008918645,22.6193233016,0.0383723664,-1.1795407462,-67.6169854524,0.2527660067,14.4897710845,0.0000000002,0.0000000004,11.6364121026,0.0000000006,0.0000000012,38.1674316966,0.2724565975,0.3781822794,0.6716090416,15.6185310662,21.6792389474,38.4998813648,0.0545402177,0.4086794583,0.4923377425,3.1265092970,23.4274848707,28.2231826905
1.2000000000,9139.3009476771,29976.9071083810,994.6609607718,0.0008918771,22.8094019278,0.0386947597,-1.1765796183,-67.4472392670,0.2551490697,14.6263797912,0.0000000002,0.0000000004,11.7341972219,0.0000000006,0.0000000013,38.4881668877,0.2753278288,0.3807863421,0.6779016539,15.7831239456,21.8285164259,38.8606043654,0.0534952126,0.4089063878,0.4922052501,3.0666045416,23.4404935671,28.2155875871
1.2100000000,9139.1831167793,29976.5206230361,994.6626202484,0.0008918898,22.9994805610,0.0390171514,-1.1736261851,-67.2779341789,0.2575348106,14.7631420069,0.0000000002,0.0000000004,11.8319823447,0.0000000006,0.0000000013,38.8089020907,0.2782089593,0.3833761031,0.6842081583,15.9482842888,21.9769740636,39.2221237245,0.0524499117,0.4091288672,0.4920752499,3.0066828381,23.4532471656,28.2081353423
1.2200000000,9139.0643080302,29976.1309303392,994.6642934966,0.0008919026,23.1895592012,0.0393395416,-1.1706805127,-67.1090739779,0.2599231986,14.9000559721,0.0000000002,0.0000000004,11.9297674712,0.0000000006,0.0000000013,39.1296373056,0.2810999672,0.3859514372,0.6905285931,16.1140108581,22.1246046793,39.5844416407,0.0514043216,0.4093468988,0.4919477466,2.9467445518,23.4657457934,28.2008262382
1.2300000000,9138.9445214299,29975.7380302900,994.6659805165,0.0008919155,23.3796378486,0.0396619300,-1.1677426677,-66.9406624824,0.2623142034,15.0371199419,0.0000000002,0.0000000004,12.0275526014,0.0000000006,0.0000000013,39.4503725325,0.2840008294,0.3885122190,0.6968629947,16.2803023230,22.2714010869,39.9475602037,0.0503584486,0.4095604848,0.4918227452,2.8867900461,23.4779895757,28.1936605513
1.2400000000,9138.8237569782,29975.3419228885,994.6676813080,0.0008919285,23.5697165032,0.0399843169,-1.1648127173,-66.7727035399,0.2647077948,15.1743321855,0.0000000002,0.0000000004,12.1253377352,0.0000000006,0.0000000013,39.7711077715,0.2869115211,0.3910583230,0.7032113976,16.4471572591,22.4173560961,40.3114813931,0.0493122989,0.4097696273,0.4917002503,2.8268196824,23.4899786352,28.1866385525
1.2500000000,9138.7020146752,29974.9426081345,994.6693958710,0.0008919416,23.7597951650,0.0403067021,-1.1618907290,-66.6052010270,0.2671039428,15.3116909864,0.0000000002,0.0000000004,12.2231228728,0.0000000006,0.0000000013,40.0918430228,0.2898320156,0.3935896238,0.7095738345,16.6145741455,22.5624625131,40.6762070758,0.0482658789,0.4099743284,0.4915802666,2.7668338205,23.5017130928,28.1797605070
1.2600000000,9138.5792945207,29974.5400860280,994.6711242057,0.0008919548,23.9498738342,0.0406290856,-1.1589767710,-66.4381588499,0.2695026176,15.4491946416,0.0000000002,0.0000000004,12.3209080141,0.0000000006,0.0000000013,40.4125782863,0.2927622849,0.3961059959,0.7159503360,16.7825513632,22.7067131414,41.0417390051,0.0472191947,0.4101745902,0.4914627987,2.7068328179,23.5131930670,28.1730266743
1.2700000000,9138.4555965149,29974.1343565688,994.6728663120,0.0008919681,24.1399525106,0.0409514675,-1.1560709120,-66.2715809446,0.2719037899,15.5868414617,0.0000000002,0.0000000004,12.4186931592,0.0000000006,0.0000000013,40.7333135623,0.2957022988,0.3986073137,0.7223409305,16.9510871930,22.8501007825,41.4080788182,0.0461722527,0.4103704147,0.4913478508,2.6468170309,23.5244186742,28.1664373084
1.2800000000,9138.3309206575,29973.7254197567,994.6746221899,0.0008919815,24.3300311945,0.0412738477,-1.1531732212,-66.1054712775,0.2743074304,15.7246297706,0.0000000002,0.0000000004,12.5164783082,0.0000000006,0.0000000014,41.0540488508,0.2986520256,0.4010934515,0.7287456446,17.1201798135,22.9926182371,41.7752280348,0.0451250589,0.4105618038,0.4912354275,2.5867868138,23.5353900285,28.1599926574
1.2900000000,9138.2052669487,29973.3132755917,994.6763918395,0.0008919950,24.5201098859,0.0415962262,-1.1502837682,-65.9398338454,0.2767135101,15.8625579051,0.0000000002,0.0000000004,12.6142634609,0.0000000006,0.0000000014,41.3747841519,0.3016114318,0.4035642838,0.7351645027,17.2898272992,23.1342583052,42.1431880551,0.0440776195,0.4107487597,0.4911255328,2.5267425190,23.5461072417,28.1536929639
1.3000000000,9138.0786353883,29972.8979240736,994.6781752606,0.0008920087,24.7101885848,0.0419186029,-1.1474026233,-65.7746726760,0.2791220002,16.0006242145,0.0000000002,0.0000000004,12.7120486176,0.0000000006,0.0000000014,41.6955194657,0.3045804818,0.4060196850,0.7415975272,17.4600276187,23.2750137876,42.5119601581,0.0430299407,0.4109312841,0.4910181710,2.4666844976,23.5565704234,28.1475384649
1.3100000000,9137.9510259763,29972.4793652024,994.6799724534,0.0008920224,24.9002672913,0.0422409780,-1.1445298574,-65.6099918283,0.2815328721,16.1388270605,0.0000000002,0.0000000004,12.8098337781,0.0000000006,0.0000000014,42.0162547923,0.3075591384,0.4084595295,0.7480447382,17.6307786324,23.4148774864,42.8815454999,0.0419820285,0.4111093789,0.4909133461,2.4066130989,23.5667796808,28.1415293918
1.3200000000,9137.8224387127,29972.0575989778,994.6817834178,0.0008920363,25.0903460055,0.0425633513,-1.1416655419,-65.4457953928,0.2839460974,16.2771648170,0.0000000002,0.0000000004,12.9076189426,0.0000000006,0.0000000014,42.3369901318,0.3105473622,0.4108836918,0.7545061536,17.8020780907,23.5538422061,43.2519451118,0.0409338890,0.4112830460,0.4908110619,2.3465286706,23.5767351190,28.1356659701
1.3300000000,9137.6928735975,29971.6326253997,994.6836081538,0.0008920502,25.2804247273,0.0428857228,-1.1388097485,-65.2820874917,0.2863616479,16.4156358694,0.0000000002,0.0000000004,13.0054041111,0.0000000006,0.0000000014,42.6577254844,0.3135451123,0.4132920465,0.7609817893,17.9739236324,23.6919007544,43.6231598984,0.0398855283,0.4114522871,0.4907113224,2.2864315589,23.5864368404,28.1299484200
1.3400000000,9137.5623306305,29971.2044444681,994.6854466614,0.0008920643,25.4705034569,0.0432080926,-1.1359625498,-65.1188722795,0.2887794958,16.5542386148,0.0000000002,0.0000000004,13.1031892835,0.0000000006,0.0000000014,42.9784608500,0.3165523452,0.4156844681,0.7674716589,18.1463127822,23.8290459431,43.9951906364,0.0388369523,0.4116171040,0.4906141313,2.2263221085,23.5958849455,28.1243769559
1.3500000000,9137.4308098118,29970.7730561827,994.6872989406,0.0008920784,25.6605821944,0.0435304606,-1.1331240188,-64.9561539431,0.2911996133,16.6929714611,0.0000000002,0.0000000004,13.2009744600,0.0000000006,0.0000000014,43.2991962289,0.3195690159,0.4180608314,0.7739757735,18.3192429492,23.9652705890,44.3680379719,0.0377881671,0.4117774985,0.4905194923,2.1662006625,23.6050795319,28.1189517867
1.3600000000,9137.2983111413,29970.3384605434,994.6891649915,0.0008920927,25.8506609397,0.0438528267,-1.1302942291,-64.7939367023,0.2936219727,16.8318328272,0.0000000002,0.0000000004,13.2987596406,0.0000000006,0.0000000015,43.6199316210,0.3225950771,0.4204210111,0.7804941422,18.4927114248,24.1005675150,44.7417024196,0.0367391786,0.4119334721,0.4904274088,2.1060675628,23.6140206953,28.1136731154
1.3700000000,9137.1648346190,29969.9006575502,994.6910448139,0.0008921071,26.0407396930,0.0441751911,-1.1274732550,-64.6322248099,0.2960465466,16.9708211424,0.0000000002,0.0000000004,13.3965448252,0.0000000006,0.0000000015,43.9406670266,0.3256304794,0.4227648822,0.7870267716,18.6667153811,24.2349295510,45.1161843604,0.0356899927,0.4120850266,0.4903378843,2.0459231498,23.6227085287,28.1085411397
1.3800000000,9137.0303802448,29969.4596472029,994.6929384080,0.0008921215,26.2308184542,0.0444975537,-1.1246611712,-64.4710225523,0.2984733079,17.1099348464,0.0000000002,0.0000000005,13.4943300139,0.0000000006,0.0000000015,44.2614024456,0.3286751715,0.4250923197,0.7935736660,18.8412518684,24.3683495349,45.4914840401,0.0346406154,0.4122321634,0.4902509222,1.9857677623,23.6311431226,28.1035560516
1.3900000000,9136.8949480187,29969.0154295013,994.6948457737,0.0008921361,26.4208972236,0.0448199144,-1.1218580530,-64.3103342494,0.3009022294,17.2491723883,0.0000000002,0.0000000005,13.5921152068,0.0000000006,0.0000000015,44.5821378783,0.3317290996,0.4274031988,0.8001348273,19.0163178140,24.5008203136,45.8676015673,0.0335910525,0.4123748841,0.4901665258,1.9256017381,23.6393245654,28.0987180374
1.4000000000,9136.7585379406,29968.5680044453,994.6967669111,0.0008921508,26.6109760010,0.0451422733,-1.1190639765,-64.1501642553,0.3033332844,17.3885322271,0.0000000002,0.0000000005,13.6899004038,0.0000000006,0.0000000015,44.9028733246,0.3347922081,0.4296973950,0.8067102550,19.1919100201,24.6323347443,46.2445369123,0.0325413100,0.4125131902,0.4900846981,1.8654254136,23.6472529426,28.0940272778
1.4100000000,9136.6211500106,29968.1173720347,994.6987018200,0.0008921656,26.8010547866,0.0454646303,-1.1162790181,-63.9905169587,0.3057664460,17.5280128307,0.0000000002,0.0000000005,13.7876856051,0.0000000006,0.0000000015,45.2236087847,0.3378644389,0.4319747838,0.8132999461,19.3680251617,24.7628856950,46.6222899046,0.0314913936,0.4126470832,0.4900054422,1.8052391240,23.6549283376,28.0894839481
1.4200000000,9136.4827842285,29967.6635322695,994.7006505006,0.0008921805,26.9911335805,0.0457869855,-1.1135032550,-63.8313967827,0.3082016878,17.6676126759,0.0000000002,0.0000000005,13.8854708106,0.0000000006,0.0000000015,45.5443442588,0.3409457318,0.4342352410,0.8199038952,19.5446597853,24.8924660461,47.0008602319,0.0304413092,0.4127765645,0.4899287611,1.7450432032,23.6623508311,28.0850882176
1.4300000000,9136.3434405944,29967.2064851495,994.7026129528,0.0008921955,27.1812123826,0.0461093388,-1.1107367650,-63.6728081855,0.3106389832,17.8073302480,0.0000000002,0.0000000005,13.9832560204,0.0000000006,0.0000000015,45.8650797468,0.3440360242,0.4364786427,0.8265220942,19.7218103068,25.0210686912,47.3802474383,0.0293910626,0.4129016354,0.4898546577,1.6848379840,23.6695205013,28.0808402505
1.4400000000,9136.2031191081,29966.7462306746,994.7045891766,0.0008922106,27.3712911931,0.0464316901,-1.1079796265,-63.5147556607,0.3130783060,17.9471640403,0.0000000002,0.0000000005,14.0810412344,0.0000000006,0.0000000016,46.1858152489,0.3471352514,0.4387048652,0.8331545328,19.8994730096,25.1486865385,47.7604509226,0.0283406596,0.4130222973,0.4897831347,1.6246237979,23.6764374239,28.0767402051
1.4500000000,9136.0618197697,29966.2827688445,994.7065791721,0.0008922258,27.5613700120,0.0467540396,-1.1052319185,-63.3572437375,0.3155196301,18.0871125541,0.0000000002,0.0000000005,14.1788264528,0.0000000006,0.0000000016,46.5065507652,0.3502433461,0.4409137849,0.8398011978,20.0776440433,25.2753125117,48.1414699365,0.0272901059,0.4131385514,0.4897141947,1.5644009757,23.6831016722,28.0727882340
1.4600000000,9135.9195425790,29965.8160996592,994.7085829391,0.0008922411,27.7514488394,0.0470763871,-1.1024937207,-63.2002769811,0.3179629294,18.2271742978,0.0000000002,0.0000000005,14.2766116755,0.0000000006,0.0000000016,46.8272862958,0.3533602388,0.4431052788,0.8464620736,20.2563194216,25.4009395510,48.5233035837,0.0262394073,0.4132503990,0.4896478405,1.5041698467,23.6895133167,28.0689844845
1.4700000000,9135.7762875361,29965.3462231186,994.7106004778,0.0008922565,27.9415276753,0.0473987327,-1.0997651132,-63.0438599929,0.3204081781,18.3673477871,0.0000000002,0.0000000005,14.3743969027,0.0000000006,0.0000000016,47.1480218408,0.3564858576,0.4452792241,0.8531371420,20.4354950208,25.5255606148,48.9059508175,0.0251885696,0.4133578412,0.4895840743,1.4439307394,23.6956724254,28.0653290982
1.4800000000,9135.6320546410,29964.8731392224,994.7126317881,0.0008922721,28.1316065198,0.0477210763,-1.0970461771,-62.8879974109,0.3228553503,18.5076315442,0.0000000002,0.0000000005,14.4721821342,0.0000000006,0.0000000016,47.4687574002,0.3596201281,0.4474354981,0.8598263821,20.6151665780,25.6491686804,49.2894104400,0.0241375983,0.4134608792,0.4895228986,1.3836839814,23.7015790639,28.0618222111
1.4900000000,9135.4868438935,29964.3968479705,994.7146768701,0.0008922877,28.3216853729,0.0480434180,-1.0943369938,-62.7326939102,0.3253044204,18.6480240977,0.0000000002,0.0000000005,14.5699673702,0.0000000005,0.0000000016,47.7894929743,0.3627629735,0.4495739788,0.8665297703,20.7953296897,25.7717567454,49.6736811001,0.0230864994,0.4135595141,0.4894643156,1.3234298992,23.7072332951,28.0584639536
