Time, Altitude - m, Altitude - ft, SpeedofSound - ft/sec, AirDensity - slug/ft3,TransVel - ft/sec,Mach, AoA - rad, AoA - deg, AoS - rad, AoS - deg, u_NED, v_NED, w_NED, u_NED - ft/sec, v_NED - ft/sec, w_NED - ft/sec, phi_rad, theta_rad, psi_rad, phi_deg, theta_deg, psi_deg, roll_rate, pitch_rate, yaw_rate, roll_rate - deg, pitch_rate - deg, yaw_rate - deg 
0.0000000000,9146.3414634146,30000.0000000000,994.5618053589,0.0008911192,0.0000000002,0.0000000000,0.0000000000,0.0000000000,0.0000000000,0.0000000000,0.0000000001,0.0000000000,0.0000000000,0.0000000003,0.0000000000,0.0000000000,0.0000000000,0.0000000000,0.0000000000,0.0000000000,0.0000000000,0.0000000000,0.1745329252,0.3490658504,0.5235987756,10.0050721452,20.0101442904,30.0152164356
0.0100000000,9146.3409744901,29999.9983963276,994.5618122447,0.0008911192,0.1900782093,0.0003224882,-1.5673063558,-89.8455872733,0.0017497082,0.1003017413,0.0000000001,0.0000000000,0.0977849048,0.0000000003,0.0000000000,0.3207344876,0.0017497188,0.0034899667,0.0052372237,0.1003023506,0.2000617864,0.3002230119,0.1735822822,0.3498413478,0.5232331832,9.9505766851,20.0545995542,29.9942589071
0.0200000000,9146.3395077165,29999.9935853102,994.5618329020,0.0008911194,0.3801564186,0.0006449765,-1.5638178222,-89.6456076428,0.0035081177,0.2011022860,0.0000000001,0.0000000000,0.1955698095,0.0000000003,0.0000000000,0.6414689753,0.0035082031,0.0069784622,0.0104769887,0.2011071814,0.4000392322,0.6005917090,0.1726286012,0.3506080702,0.5228675047,9.8959070747,20.0985517928,29.9732964505
0.0300000000,9146.3370630939,29999.9855669480,994.5618673310,0.0008911196,0.5702346280,0.0009674647,-1.5603308269,-89.4457161945,0.0052751440,0.3023967920,0.0000000001,0.0000000000,0.2933547144,0.0000000003,0.0000000000,0.9622034632,0.0052754329,0.0104653546,0.0157193993,0.3024133512,0.5999247850,0.9011120645,0.1716719270,0.3513659927,0.5225017664,9.8410658770,20.1419995794,29.9523305579
0.0400000000,9146.3336406222,29999.9743412410,994.5619155315,0.0008911200,0.7603128376,0.0012899528,-1.5568454683,-89.2459185645,0.0070507029,0.4041804215,0.0000000001,0.0000000000,0.3911396193,0.0000000003,0.0000000000,1.2829379514,0.0070513890,0.0139505120,0.0209645595,0.4042197540,0.7997108782,1.2017900348,0.1707123043,0.3521150910,0.5221359940,9.7860556579,20.1849415203,29.9313627111
0.0500000000,9146.3292403015,29999.9599081890,994.5619775036,0.0008911205,0.9503910475,0.0016124409,-1.5533618444,-89.0462203806,0.0088347100,0.5064483434,0.0000000001,0.0000000000,0.4889245244,0.0000000003,0.0000000000,1.6036724400,0.0088360528,0.0174338021,0.0262125727,0.5065253180,0.9993899311,1.5026315587,0.1697497779,0.3528553413,0.5217702131,9.7308789862,20.2273762538,29.9103943817
0.0600000000,9146.3238621318,29999.9422677922,994.5620532473,0.0008911211,1.1404692576,0.0019349290,-1.5498800532,-88.8466272533,0.0106270811,0.6091957339,0.0000000001,0.0000000000,0.5867094296,0.0000000004,0.0000000001,1.9244069290,0.0106294060,0.0209150925,0.0314635424,0.6093290054,1.1989543490,1.8036425573,0.1687843927,0.3535867205,0.5214044493,9.6755384332,20.2693024508,29.8894270305
0.0700000000,9146.3175061129,29999.9214200504,994.5621427626,0.0008911218,1.3305474681,0.0022574169,-1.5464001922,-88.6471447741,0.0124277323,0.7124177773,0.0000000001,0.0000000000,0.6844943350,0.0000000004,0.0000000001,2.2451414187,0.0124314312,0.0243942505,0.0367175714,0.7126298119,1.3983965232,2.1048289331,0.1678161935,0.3543092060,0.5210387279,9.6200365728,20.3107188146,29.8684621075
0.0800000000,9146.3101722451,29999.8973649638,994.5622460494,0.0008911225,1.5206256790,0.0025799048,-1.5429223586,-88.4477785163,0.0142365797,0.8161096666,0.0000000001,0.0000000000,0.7822792406,0.0000000004,0.0000000001,2.5658759091,0.0142421114,0.0278711429,0.0419747624,0.8164267665,1.5977088309,2.4061965693,0.1668452254,0.3550227756,0.5206730739,9.5643759809,20.3516240809,29.8475010518
0.0900000000,9146.3018605281,29999.8701025322,994.5623631079,0.0008911234,1.7107038903,0.0029023926,-1.5394466493,-88.2485340346,0.0160535397,0.9202666044,0.0000000001,0.0000000000,0.8800641464,0.0000000004,0.0000000001,2.8866104002,0.0160614302,0.0313456368,0.0472352176,0.9207189305,1.7968836357,2.7077513296,0.1658715333,0.3557274080,0.5203075123,9.5085592355,20.3920170176,29.8265452911
0.1000000000,9146.2925709621,29999.8396327558,994.5624939379,0.0008911244,1.9007821022,0.0032248802,-1.5359731609,-88.0494168660,0.0178785286,1.0248838031,0.0000000001,0.0000000000,0.9778490525,0.0000000004,0.0000000001,3.2073448922,0.0178893719,0.0348175985,0.0524990391,1.0255053974,1.9959132872,3.0094990571,0.1648951622,0.3564230821,0.5199420678,9.4525889165,20.4318964249,29.8055962421
0.1100000000,9146.2823035471,29999.8059556344,994.5626385395,0.0008911255,2.0908603147,0.0035473677,-1.5325019897,-87.8504325296,0.0197114631,1.1299564862,0.0000000001,0.0000000000,1.0756339589,0.0000000004,0.0000000001,3.5280793853,0.0197259212,0.0382868943,0.0577663283,1.1307852922,2.1947901217,3.3114455740,0.1639161571,0.3571097776,0.5195767648,9.3964676054,20.4712611355,29.7846553096
0.1200000000,9146.2710582830,29999.7690711681,994.5627969126,0.0008911268,2.2809385278,0.0038698551,-1.5290332317,-87.6515865278,0.0215522603,1.2354798882,0.0000000001,0.0000000000,1.1734188657,0.0000000004,0.0000000001,3.8488138794,0.0215710633,0.0417533905,0.0630371865,1.2365577710,2.3935064618,3.6135966809,0.1629345631,0.3577874747,0.5192116278,9.3401978851,20.5101100139,29.7637238871
0.1300000000,9146.2588351698,29999.7289793568,994.5629690574,0.0008911281,2.4710167416,0.0041923423,-1.5255669825,-87.4528843457,0.0234008370,1.3414492561,0.0000000001,0.0000000000,1.2712037728,0.0000000004,0.0000000001,4.1695483746,0.0234247841,0.0452169528,0.0683117145,1.3428220202,2.5920546165,3.9159581560,0.1619504253,0.3584561541,0.5188466808,9.2837823398,20.5484419572,29.7428033560
0.1400000000,9146.2456342075,29999.6856802006,994.5631549737,0.0008911295,2.6610949562,0.0045148293,-1.5221033376,-87.2543314524,0.0252571107,1.4478598493,0.0000000001,0.0000000000,1.3689886802,0.0000000004,0.0000000001,4.4902828712,0.0252870699,0.0486774467,0.0735900126,1.4495772564,2.7904268816,4.2185357548,0.1609637887,0.3591157973,0.5184819476,9.2272235549,20.5862558944,29.7218950858
0.1500000000,9146.2314553962,29999.6391736994,994.5633546616,0.0008911310,2.8511731716,0.0048373161,-1.5186423920,-87.0559333008,0.0271209989,1.5547069405,0.0000000001,0.0000000000,1.4667735882,0.0000000004,0.0000000002,4.8110173692,0.0271579075,0.0521347378,0.0788721809,1.5568227251,2.9886155399,4.5213352090,0.1599746985,0.3597663859,0.5181174520,9.1705241164,20.6235507865,29.7010004338
0.1600000000,9146.2162987357,29999.5894598532,994.5635681211,0.0008911326,3.0412513879,0.0051598028,-1.5151842407,-86.8576953283,0.0289924192,1.6619858162,0.0000000001,0.0000000000,1.5645584965,0.0000000004,0.0000000002,5.1317518686,0.0290372843,0.0555886910,0.0841583188,1.6645577008,3.1866128608,4.8243622263,0.1589831998,0.3604079026,0.5177532174,9.1136866113,20.6603256267,29.6801207450
0.1700000000,9146.2001642262,29999.5365386620,994.5637953522,0.0008911344,3.2313296051,0.0054822892,-1.5117289783,-86.6596229571,0.0308712899,1.7696917776,0.0000000001,0.0000000001,1.6623434054,0.0000000004,0.0000000002,5.4524863696,0.0309251881,0.0590391714,0.0894485256,1.7727814859,3.3844111010,5.1276224893,0.1579893377,0.3610403302,0.5173892671,9.0567136271,20.6965794402,29.6592573517
0.1800000000,9146.1830518676,29999.4804101258,994.5640363549,0.0008911362,3.4214078233,0.0058047754,-1.5082766989,-86.4617215945,0.0327575291,1.8778201407,0.0000000001,0.0000000001,1.7601283147,0.0000000004,0.0000000002,5.7732208722,0.0328216073,0.0624860437,0.0947429000,1.8814934103,3.5820025041,5.4311216550,0.1569931574,0.3616636524,0.5170256241,8.9996077514,20.7323112838,29.6384115740
0.1900000000,9146.1649616599,29999.4210742446,994.5642911291,0.0008911382,3.6114860425,0.0061272614,-1.5048274968,-86.2639966337,0.0346510555,1.9863662372,0.0000000001,0.0000000001,1.8579132246,0.0000000004,0.0000000002,6.0939553767,0.0347265305,0.0659291723,0.1000415401,1.9906928307,3.7793793014,5.7348653542,0.1559947041,0.3622778532,0.5166623112,8.9423715724,20.7675202466,29.6175847188
0.2000000000,9146.1458936031,29999.3585310183,994.5645596749,0.0008911402,3.8015642629,0.0064497471,-1.5013814658,-86.0664534535,0.0365517878,2.0953254149,0.0000000001,0.0000000001,1.9556981351,0.0000000004,0.0000000002,6.4146898830,0.0366399470,0.0693684214,0.1053445437,2.1003791299,3.9765337112,6.0388591909,0.1549940228,0.3628829173,0.5162993510,8.8850076779,20.8022054492,29.5967780803
0.2100000000,9146.1258476972,29999.2927804469,994.5648419923,0.0008911424,3.9916424844,0.0067722325,-1.4979386994,-85.8690974195,0.0384596452,2.2046930383,0.0000000001,0.0000000001,2.0534830461,0.0000000004,0.0000000002,6.7354243913,0.0385618466,0.0728036552,0.1106520080,2.2105517158,4.1734579397,6.3431087410,0.1539911588,0.3634788299,0.5159367657,8.8275186559,20.8363660440,29.5759929395
0.2200000000,9146.1048239422,29999.2238225304,994.5651380813,0.0008911446,4.1817207071,0.0070947177,-1.4944992911,-85.6719338839,0.0403745472,2.3144644891,0.0000000001,0.0000000001,2.1512679578,0.0000000004,0.0000000002,7.0561589017,0.0404922193,0.0762347374,0.1159640300,2.3212100215,4.3701441810,6.6476195524,0.1529861571,0.3640655768,0.5155745776,8.7699070936,20.8700012150,29.5552305644
0.2300000000,9146.0828223381,29999.1516572689,994.5654479418,0.0008911470,4.3717989312,0.0074172026,-1.4910633339,-85.4749681862,0.0422964135,2.4246351667,0.0000000001,0.0000000001,2.2490528702,0.0000000004,0.0000000002,7.3768934142,0.0424310556,0.0796615316,0.1212807057,2.4323535038,4.5665846168,6.9523971435,0.1519790629,0.3646431442,0.5152128085,8.7121755782,20.9031101781,29.5344922094
0.2400000000,9146.0598428848,29999.0762846621,994.5657715740,0.0008911495,4.5618771565,0.0077396872,-1.4876309208,-85.2782056535,0.0442251641,2.5352004886,0.0000000001,0.0000000001,2.3468377832,0.0000000004,0.0000000002,7.6976279290,0.0443783464,0.0830839014,0.1266021311,2.5439816426,4.7627714170,7.2574470031,0.1509699212,0.3652115191,0.5148514801,8.6543266958,20.9356921804,29.5137791156
0.2500000000,9146.0358855824,29998.9977047103,994.5661089777,0.0008911521,4.7519553833,0.0080621714,-1.4842021446,-85.0816516007,0.0461607194,2.6461558913,0.0000000001,0.0000000001,2.4446226970,0.0000000004,0.0000000003,8.0183624461,0.0463340832,0.0865017098,0.1319284012,2.6560939404,4.9586967400,7.5627745892,0.1499587773,0.3657706890,0.5144906138,8.5963630319,20.9677465006,29.4930925103
0.2600000000,9146.0109504309,29998.9159174132,994.5664601530,0.0008911548,4.9420336116,0.0083846553,-1.4807770977,-84.8853113313,0.0481030003,2.7574968301,0.0000000001,0.0000000001,2.5424076115,0.0000000004,0.0000000003,8.3390969658,0.0482982575,0.0899148199,0.1372596107,2.7686899214,5.1543527325,7.8683853285,0.1489456762,0.3663206416,0.5141302307,8.5382871709,20.9992724486,29.4724336073
0.2700000000,9145.9850374302,29998.8309227709,994.5668250999,0.0008911575,5.1321118413,0.0087071389,-1.4773558724,-84.6891901376,0.0500519276,2.8692187802,0.0000000001,0.0000000001,2.6401925268,0.0000000004,0.0000000003,8.6598314880,0.0502708615,0.0933230945,0.1425958538,2.8817691307,5.3497315297,8.1742846155,0.1479306629,0.3668613656,0.5137703518,8.4801016960,21.0302693660,29.4518036062
0.2800000000,9145.9581465803,29998.7427207834,994.5672038184,0.0008911604,5.3221900727,0.0090296221,-1.4739385609,-84.4932933010,0.0520074229,2.9813172367,0.0000000001,0.0000000001,2.7379774429,0.0000000004,0.0000000003,8.9805660128,0.0522518875,0.0967263961,0.1479372240,2.9953311333,5.5448252558,8.4804778117,0.1469137825,0.3673928500,0.5134109978,8.4218091890,21.0607366254,29.4312036929
0.2900000000,9145.9302778813,29998.6513114507,994.5675963084,0.0008911634,5.5122683056,0.0093521049,-1.4705252552,-84.2976260923,0.0539694079,3.0937877153,0.0000000001,0.0000000001,2.8357623599,0.0000000004,0.0000000003,9.3013005404,0.0542413284,0.1001245873,0.1532838143,3.1093755136,5.7396260243,8.7869702449,0.1458950800,0.3679150844,0.5130521890,8.3634122305,21.0906736303,29.4106350391
0.3000000000,9145.9014313331,29998.5566947726,994.5680025700,0.0008911665,5.7023465403,0.0096745874,-1.4671160469,-84.1021937723,0.0559378048,3.2066257525,0.0000000001,0.0000000001,2.9335472777,0.0000000004,0.0000000003,9.6220350709,0.0562391771,0.1035175302,0.1586357169,3.2239018744,5.9341259374,9.0937672085,0.1448746004,0.3684280590,0.5126939458,8.3049133990,21.1200798157,29.3900988022
0.3100000000,9145.8716069357,29998.4588707493,994.5684226033,0.0008911698,5.8924247767,0.0099970695,-1.4637110278,-83.9070015923,0.0579125360,3.3198269063,0.0000000001,0.0000000001,3.0313321964,0.0000000004,0.0000000003,9.9427696043,0.0582454271,0.1069050870,0.1639930235,3.3389098360,6.1283170872,9.4008739604,0.1438523886,0.3689317644,0.5123362880,8.2463152714,21.1489546474,29.3695961253
0.3200000000,9145.8408046892,29998.3578393805,994.5688564080,0.0008911731,6.0825030149,0.0103195511,-1.4603102892,-83.7120547940,0.0598935245,3.4333867564,0.0000000001,0.0000000001,3.1291171161,0.0000000004,0.0000000003,10.2635041407,0.0602600721,0.1102871194,0.1693558254,3.4543990351,6.3221915554,9.7082957223,0.1428284896,0.3694261919,0.5119792353,8.1876204228,21.1772976220,29.3491281371
0.3300000000,9145.8090245934,29998.2536006664,994.5693039844,0.0008911765,6.2725812550,0.0106420323,-1.4569139224,-83.5173586103,0.0618806936,3.5473009045,0.0000000001,0.0000000001,3.2269020367,0.0000000004,0.0000000003,10.5842386804,0.0622831058,0.1136634891,0.1747242128,3.5703691245,6.5157414136,10.0160376789,0.1418029482,0.3699113331,0.5116228072,8.1288314258,21.2051082670,29.3286959516
0.3400000000,9145.7762666485,29998.1461546069,994.5697653324,0.0008911800,6.4626594970,0.0109645131,-1.4535220186,-83.3229182654,0.0638739668,3.6615649749,0.0000000001,0.0000000001,3.3246869583,0.0000000004,0.0000000004,10.9049732232,0.0643145227,0.1170340577,0.1800982757,3.6868197716,6.7089587236,10.3241049772,0.1407758093,0.3703871805,0.5112670228,8.0699508510,21.2323861407,29.3083006682
0.3500000000,9145.7425308543,29998.0355012020,994.5702404519,0.0008911836,6.6527377410,0.0112869934,-1.4501346688,-83.1287389753,0.0658732683,3.7761746147,0.0000000001,0.0000000001,3.4224718809,0.0000000005,0.0000000004,11.2257077695,0.0663543170,0.1203986866,0.1854781031,3.8037506579,6.9018355375,10.6325027251,0.1397471176,0.3708537267,0.5109119010,8.0109812664,21.2591308318,29.2879433716
0.3600000000,9145.7078172108,29997.9216404515,994.5707293430,0.0008911874,6.8428159871,0.0116094733,-1.4467519638,-82.9348259481,0.0678785225,3.8911254941,0.0000000001,0.0000000001,3.5202568046,0.0000000005,0.0000000004,11.5464423191,0.0684024836,0.1237572369,0.1908637834,3.9211614775,7.0943638982,10.9412359913,0.1387169180,0.3713109653,0.5105574606,7.9519252375,21.2853419598,29.2676251316
0.3700000000,9145.6721257182,29997.8045723556,994.5712320057,0.0008911912,7.0328942352,0.0119319527,-1.4433739943,-82.7411843845,0.0698896544,4.0064133070,0.0000000001,0.0000000001,3.6180417294,0.0000000005,0.0000000004,11.8671768724,0.0704590171,0.1271095696,0.1962554044,4.0390519368,7.2865358395,11.2503098038,0.1376852552,0.3717588900,0.5102037199,7.8927853271,21.3110191743,29.2473470029
0.3800000000,9145.6354563762,29997.6842969141,994.5717484400,0.0008911952,7.2229724856,0.0122544316,-1.4400008509,-82.5478194779,0.0719065891,4.1220337711,0.0000000001,0.0000000001,3.7158266553,0.0000000005,0.0000000004,12.1879114292,0.0725239128,0.1304555457,0.2016530529,4.1574217530,7.4783433864,11.5597291493,0.1366521737,0.3721974954,0.5098506971,7.8335640951,21.3361621556,29.2271100252
0.3900000000,9145.5978091851,29997.5608141270,994.5722786459,0.0008911992,7.4130507381,0.0125769100,-1.4366326241,-82.3547364148,0.0739292525,4.2379826280,0.0000000001,0.0000000001,3.8136115823,0.0000000005,0.0000000004,12.5086459899,0.0745971658,0.1337950259,0.2070568154,4.2762706533,7.6697785553,11.8694989721,0.1356177182,0.3726267763,0.5094984100,7.7742640982,21.3607706140,29.2069152232
0.4000000000,9145.5591841446,29997.4341239943,994.5728226234,0.0008912034,7.6031289929,0.0128993878,-1.4332694043,-82.1619403753,0.0759575707,4.3542556441,0.0000000001,0.0000000001,3.9113965105,0.0000000005,0.0000000004,12.8293805543,0.0766787716,0.1371278707,0.2124667772,4.3955983740,7.8608333545,12.1796241734,0.1345819332,0.3730467282,0.5091468762,7.7148878901,21.3848442900,29.1867636061
0.4100000000,9145.5195812548,29997.3042265159,994.5733803724,0.0008912077,7.7932072500,0.0132218652,-1.4299112817,-81.9694365334,0.0779914702,4.4708486103,0.0000000001,0.0000000001,4.0091814398,0.0000000005,0.0000000004,13.1501151227,0.0787687257,0.1404539407,0.2178830232,4.5154046592,8.0514997843,12.4901096102,0.1335448633,0.3734573471,0.5087961132,7.6554380213,21.4083829542,29.1666561680
0.4200000000,9145.4790005158,29997.1711216918,994.5739518930,0.0008912120,7.9832855096,0.0135443419,-1.4265583466,-81.7772300571,0.0800308781,4.5877573426,0.0000000001,0.0000000001,4.1069663705,0.0000000005,0.0000000004,13.4708496951,0.0808670238,0.1437730960,0.2233056372,4.6356892598,8.2417698372,12.8009600946,0.1325065528,0.3738586295,0.5084461378,7.5959170386,21.4313864069,29.1465938875
0.4300000000,9145.4374419274,29997.0348095220,994.5745371852,0.0008912165,8.1733637716,0.0138668182,-1.4232106888,-81.5853261090,0.0820757218,4.7049776821,0.0000000001,0.0000000001,4.2047513024,0.0000000005,0.0000000005,13.7915842717,0.0829736615,0.1470851970,0.2287347024,4.7564519327,8.4316354986,13.1121803923,0.1314670461,0.3742505726,0.5080969670,7.5363274854,21.4538544785,29.1265777277
0.4400000000,9145.3949054897,29996.8952900064,994.5751362490,0.0008912211,8.3634420361,0.0141892938,-1.4198683984,-81.3937298465,0.0841259292,4.8225054955,0.0000000001,0.0000000001,4.3025362355,0.0000000005,0.0000000005,14.1123188525,0.0850886348,0.1503901037,0.2341703011,4.8776924395,8.6210887468,13.4237752223,0.1304263876,0.3746331737,0.5077486173,7.4766719013,21.4757870289,29.1066086362
0.4500000000,9145.3513912027,29996.7525631449,994.5757490844,0.0008912258,8.5535203031,0.0145117689,-1.4165315654,-81.2024464220,0.0861814287,4.9403366754,0.0000000001,0.0000000001,4.4003211700,0.0000000005,0.0000000005,14.4330534377,0.0872119395,0.1536876760,0.2396125148,4.9994105452,8.8101215534,13.7357492554,0.1293846215,0.3750064311,0.5074011049,7.4169528220,21.4971839479,29.0866875448
0.4600000000,9145.3068990663,29996.6066289376,994.5763756914,0.0008912305,8.7435985728,0.0148342434,-1.4132002794,-81.0114809834,0.0882421490,5.0584671399,0.0000000001,0.0000000001,4.4981061059,0.0000000005,0.0000000005,14.7537880273,0.0893435716,0.1569777737,0.2450614241,5.1216060176,8.9987258836,14.0481071137,0.1283417918,0.3753703432,0.5070544459,7.3571727792,21.5180451544,29.0668153699
0.4700000000,9145.2614290806,29996.4574873843,994.5770160699,0.0008912354,8.9336768452,0.0151567173,-1.4098746302,-80.8208386745,0.0903080194,5.1768928337,0.0000000001,0.0000000002,4.5958910431,0.0000000005,0.0000000005,15.0745226214,0.0914835271,0.1602602567,0.2505171088,5.2442786256,9.1868936967,14.3608533690,0.1272979428,0.3757249093,0.5067086559,7.2973343007,21.5383705971,29.0469930118
0.4800000000,9145.2149812455,29996.3051384851,994.5776702200,0.0008912404,9.1237551204,0.0154791905,-1.4065547075,-80.6305246347,0.0923789697,5.2956097276,0.0000000001,0.0000000002,4.6936759817,0.0000000005,0.0000000005,15.3952572201,0.0936318020,0.1635349845,0.2559796477,5.3674281384,9.3746169464,14.6739925423,0.1262531184,0.3760701289,0.5063637503,7.2374399097,21.5581602536,29.0272213552
0.4900000000,9145.1675555610,29996.1495822399,994.5783381417,0.0008912455,9.3138333983,0.0158016631,-1.4032406009,-80.4405440000,0.0944549300,5.4146138190,0.0000000001,0.0000000002,4.7914609218,0.0000000005,0.0000000005,15.7159918236,0.0957883921,0.1668018167,0.2614491188,5.4910543245,9.5618875808,14.9875291025,0.1252073626,0.3764060021,0.5060197444,7.1774921252,21.5774141309,29.0075012689
0.5000000000,9145.1191520270,29995.9908186487,994.5790198350,0.0008912508,9.5039116791,0.0161241350,-1.3999323999,-80.2509019030,0.0965358309,5.5339011321,0.0000000002,0.0000000002,4.8892458634,0.0000000005,0.0000000005,16.0367264319,0.0979532935,0.1700606127,0.2669255991,5.6151569499,9.7486975435,15.3014674654,0.1241607193,0.3767325295,0.5056766529,7.1174934618,21.5961322649,28.9878336055
0.5100000000,9145.0697706437,29995.8288477113,994.5797152999,0.0008912561,9.6939899628,0.0164466063,-1.3966301939,-80.0616034731,0.0986216035,5.6534677178,0.0000000002,0.0000000002,4.9870308064,0.0000000005,0.0000000005,16.3574610451,0.1001265019,0.1733112319,0.2724091648,5.7397357775,9.9350387734,15.6158119927,0.1231132322,0.3770497123,0.5053344905,7.0574464292,21.6143147206,28.9682192019
0.5200000000,9145.0194114109,29995.6636694278,994.5804245364,0.0008912615,9.8840682495,0.0167690769,-1.3933340725,-79.8726538368,0.1007121795,5.7733096541,0.0000000002,0.0000000002,5.0848157510,0.0000000005,0.0000000006,16.6781956634,0.1023080132,0.1765535337,0.2778998908,5.8647905656,10.1209032051,15.9305669909,0.1220649450,0.3773575522,0.5049932716,6.9973535325,21.6319615917,28.9486588787
0.5300000000,9144.9680743287,29995.4952837980,994.5811475444,0.0008912670,10.0741465392,0.0170915469,-1.3900441249,-79.6840581179,0.1028074909,5.8934230461,0.0000000002,0.0000000002,5.1826006972,0.0000000005,0.0000000006,16.9989302868,0.1044978231,0.1797873772,0.2833978515,5.9903210666,10.3062827698,16.2457367102,0.1210159013,0.3776560512,0.5046530100,6.9372172718,21.6490730006,28.9291534407
0.5400000000,9144.9157593970,29995.3236908220,994.5818843241,0.0008912727,10.2642248320,0.0174140161,-1.3867604406,-79.4958214380,0.1049074702,6.0138040263,0.0000000002,0.0000000002,5.2803856449,0.0000000005,0.0000000006,17.3196649154,0.1066959270,0.1830126217,0.2889031199,6.1163270261,10.4911693951,16.5613253435,0.1199661447,0.3779452120,0.5043137197,6.8770401424,21.6656490982,28.9097036761
0.5500000000,9144.8624666158,29995.1488904997,994.5826348753,0.0008912784,10.4543031280,0.0177364846,-1.3834831089,-79.3079489167,0.1070120505,6.1344487545,0.0000000002,0.0000000002,5.3781705943,0.0000000005,0.0000000006,17.6403995493,0.1089023205,0.1862291262,0.2944157681,6.2428081813,10.6755550058,16.8773370252,0.1189157186,0.3782250378,0.5039754140,6.8168246342,21.6816900640,28.8903103573
0.5600000000,9144.8081959851,29994.9708828310,994.5833991981,0.0008912842,10.6443814272,0.0180589523,-1.3802122189,-79.1204456715,0.1091211652,6.2553534179,0.0000000002,0.0000000002,5.4759555453,0.0000000005,0.0000000006,17.9611341886,0.1111169988,0.1894367499,0.2999358673,6.3697642600,10.8594315242,17.1937758302,0.1178646664,0.3784955321,0.5036381062,6.7565732321,21.6971961057,28.8709742404
0.5700000000,9144.7529475049,29994.7896678159,994.5841772925,0.0008912902,10.8344597297,0.0183814193,-1.3769478601,-78.9333168185,0.1112347483,6.3765142314,0.0000000002,0.0000000002,5.5737404980,0.0000000005,0.0000000006,18.2818688335,0.1133399569,0.1926353519,0.3054634874,6.4971949790,11.0427908706,17.5106457725,0.1168130312,0.3787566990,0.5033018091,6.6962884154,21.7121674594,28.8516960649
0.5800000000,9144.6967211751,29994.6052454543,994.5849691585,0.0008912962,11.0245380354,0.0187038856,-1.3736901215,-78.7465674722,0.1133527342,6.4979274375,0.0000000002,0.0000000002,5.6715254524,0.0000000005,0.0000000006,18.6026034840,0.1155711896,0.1958247910,0.3109986974,6.6251000429,11.2256249639,17.8279508046,0.1157608564,0.3790085432,0.5029665354,6.6359726581,21.7266043889,28.8324765544
0.5900000000,9144.6395169958,29994.4176157462,994.5857747961,0.0008913024,11.2146163446,0.0190263511,-1.3704390923,-78.5602027462,0.1154750579,6.6195893066,0.0000000002,0.0000000002,5.7693104086,0.0000000005,0.0000000006,18.9233381401,0.1178106917,0.1990049265,0.3165415651,6.7534791432,11.4079257215,18.1456948156,0.1147081848,0.3792510698,0.5026322975,6.5756284285,21.7405071864,28.8133164160
0.6000000000,9144.5813349669,29994.2267786915,994.5865942052,0.0008913087,11.4046946572,0.0193488158,-1.3671948619,-78.3742277528,0.1176016548,6.7414961365,0.0000000002,0.0000000002,5.8670953665,0.0000000005,0.0000000006,19.2440728022,0.1200584575,0.2021756172,0.3220921573,6.8823319563,11.5896850606,18.4638816308,0.1136550595,0.3794842843,0.5022991073,6.5152581892,21.7538761717,28.7942163404
0.6100000000,9144.5221750885,29994.0327342902,994.5874273860,0.0008913150,11.5947729734,0.0196712797,-1.3639575193,-78.1886476041,0.1197324609,6.8636442532,0.0000000002,0.0000000002,5.9648803262,0.0000000005,0.0000000007,19.5648074701,0.1223144809,0.2053367221,0.3276505396,7.0116581425,11.7708948978,18.7825150101,0.1126015234,0.3797081929,0.5019669766,6.4548643971,21.7667116921,28.7751770018
0.6200000000,9144.4620373604,29993.8354825421,994.5882743383,0.0008913215,11.7848512930,0.0199937428,-1.3607271537,-78.0034674111,0.1218674124,6.9860300103,0.0000000002,0.0000000002,6.0626652878,0.0000000005,0.0000000007,19.8855421440,0.1245787559,0.2084881003,0.3332167764,7.1414573449,11.9515471505,19.1015986468,0.1115476191,0.3799228019,0.5016359169,6.3944495029,21.7790141230,28.7561990584
0.6300000000,9144.4009217827,29993.6350234473,994.5891350623,0.0008913281,11.9749296164,0.0203162051,-1.3575038543,-77.8186922848,0.1240064463,7.1086497895,0.0000000002,0.0000000002,6.1604502512,0.0000000005,0.0000000007,20.2062768240,0.1268512758,0.2116296107,0.3387909309,7.2717291874,12.1316337365,19.4211361666,0.1104933894,0.3801281186,0.5013059394,6.3340159515,21.7907838666,28.7372831514
0.6400000000,9144.3388283554,29993.4313570056,994.5900095578,0.0008913348,12.1650079433,0.0206386665,-1.3542877102,-77.6343273361,0.1261495000,7.2315000002,0.0000000002,0.0000000002,6.2582352165,0.0000000005,0.0000000007,20.5270115103,0.1291320338,0.2147611125,0.3443730652,7.4024732740,12.3111465753,19.7411311265,0.1094388767,0.3803241503,0.5009770550,6.2735661816,21.8020213530,28.7184299059
0.6500000000,9144.2757570784,29993.2244832171,994.5908978249,0.0008913416,12.3550862741,0.0209611271,-1.3510788106,-77.4503776757,0.1282965113,7.3545770799,0.0000000002,0.0000000002,6.3560201838,0.0000000005,0.0000000007,20.8477462028,0.1314210225,0.2178824646,0.3499632401,7.5336891868,12.4900775882,20.0615870131,0.1083841236,0.3805109050,0.5006492743,6.2131026255,21.8127270392,28.6996399305
0.6600000000,9144.2117079517,29993.0144020815,994.5917998636,0.0008913484,12.5451646086,0.0212835868,-1.3478772446,-77.2668484148,0.1304474185,7.4778774937,0.0000000002,0.0000000002,6.4538051530,0.0000000005,0.0000000007,21.1684809018,0.1337182342,0.2209935262,0.3555615152,7.6653764851,12.6684186988,20.3825072419,0.1073291723,0.3806883912,0.5003226077,6.1526277094,21.8229014091,28.6809138172
0.6700000000,9144.1466809753,29992.8011135990,994.5927156738,0.0008913554,12.7352429469,0.0216060456,-1.3446831014,-77.0837446648,0.1326021605,7.6013977349,0.0000000002,0.0000000002,6.5515901242,0.0000000005,0.0000000007,21.4892156072,0.1360236609,0.2240941564,0.3611679488,7.7975347037,12.8461618338,20.7038951558,0.1062740650,0.3808566179,0.4999970651,6.0921438528,21.8325449737,28.6622521417
0.6800000000,9144.0806761492,29992.5846177694,994.5936452557,0.0008913626,12.9253212892,0.0219285036,-1.3414964702,-76.9010715377,0.1347606765,7.7251343243,0.0000000002,0.0000000002,6.6493750973,0.0000000005,0.0000000007,21.8099503193,0.1383372940,0.2271842146,0.3667825980,7.9301633514,13.0232989234,21.0257540239,0.1052188438,0.3810155943,0.4996726564,6.0316534687,21.8416582709,28.6436554629
0.6900000000,9144.0136934734,29992.3649145926,994.5945886092,0.0008913698,13.1153996355,0.0222509606,-1.3383174401,-76.7188341462,0.1369229065,7.8490838109,0.0000000002,0.0000000002,6.7471600726,0.0000000005,0.0000000008,22.1306850381,0.1406591244,0.2302635598,0.3724055184,8.0632619098,13.1998219019,21.3480870404,0.1041635508,0.3811653303,0.4993493910,5.9711589634,21.8502418650,28.6251243236
0.7000000000,9143.9457329477,29992.1420040686,994.5955457342,0.0008913771,13.3054779858,0.0225734168,-1.3351461004,-76.5370376039,0.1390887906,7.9732427710,0.0000000002,0.0000000002,6.8449450499,0.0000000005,0.0000000008,22.4514197636,0.1429891426,0.2333320517,0.3780367644,8.1968298319,13.3757227084,21.6708973232,0.1031082277,0.3813058363,0.4990272780,5.9106627365,21.8582963469,28.6066592497
0.7100000000,9143.8767945724,29991.9158861973,994.5965166309,0.0008913845,13.4955563401,0.0228958720,-1.3319825403,-76.3556870254,0.1412582696,8.0976078090,0.0000000002,0.0000000002,6.9427300293,0.0000000005,0.0000000008,22.7721544961,0.1453273385,0.2363895496,0.3836763891,8.3308665402,13.5509932871,21.9941879125,0.1020529164,0.3814371229,0.4987063264,5.8501671807,21.8658223340,28.5882607508
0.7200000000,9143.8068783472,29991.6865609787,994.5975012991,0.0008913920,13.6856346987,0.0232183262,-1.3288268491,-76.1747875263,0.1434312847,8.2221755565,0.0000000002,0.0000000002,7.0405150108,0.0000000005,0.0000000008,23.0928892355,0.1476737015,0.2394359130,0.3893244442,8.4653714258,13.7256255881,22.3179617699,0.1009976583,0.3815592015,0.4983865448,5.7896746817,21.8728204697,28.5699293200
0.7300000000,9143.7359842721,29991.4540284126,994.5984997389,0.0008913997,13.8757130614,0.0235407795,-1.3256791159,-75.9943442237,0.1456077777,8.3469426732,0.0000000002,0.0000000002,7.1382999945,0.0000000005,0.0000000008,23.4136239821,0.1500282204,0.2424710018,0.3949809799,8.6003438465,13.8996115683,22.6422217768,0.0999424951,0.3816720837,0.4980679415,5.7291876182,21.8792914237,28.5516654340
0.7400000000,9143.6641123473,29991.2182884990,994.5995119503,0.0008914074,14.0657914284,0.0238632318,-1.3225394301,-75.8143622360,0.1477876909,8.4719058456,0.0000000002,0.0000000002,7.2360849804,0.0000000005,0.0000000008,23.7343587358,0.1523908834,0.2454946757,0.4006460450,8.7357831254,14.0729431913,22.9669707333,0.0988874681,0.3817757817,0.4977505244,5.6687083617,21.8852358915,28.5334695528
0.7500000000,9143.5912625725,29990.9793412379,994.6005379333,0.0008914152,14.2558697997,0.0241856832,-1.3194078810,-75.6348466828,0.1499709667,8.5970617881,0.0000000002,0.0000000002,7.3338699686,0.0000000005,0.0000000008,24.0550934969,0.1547616780,0.2485067946,0.4063196870,8.8716885497,14.2456124290,23.2922113568,0.0978326185,0.3818703079,0.4974343014,5.6082392765,21.8906545946,28.5153421201
0.7600000000,9143.5174349479,29990.7371866291,994.6015776879,0.0008914232,14.4459481754,0.0245081335,-1.3162845580,-75.4558026859,0.1521575486,8.7224072421,0.0000000002,0.0000000003,7.4316549589,0.0000000005,0.0000000008,24.3758282653,0.1571405912,0.2515072187,0.4120019518,9.0080593687,14.4176112612,23.6179462807,0.0967779874,0.3819556756,0.4971192799,5.5477827193,21.8955482800,28.4972835632
0.7700000000,9143.4426294733,29990.4918246726,994.6026312141,0.0008914312,14.6360265555,0.0248305829,-1.3131695503,-75.2772353681,0.1543473799,8.8479389761,0.0000000002,0.0000000003,7.5294399516,0.0000000005,0.0000000008,24.6965630412,0.1595276092,0.2544958081,0.4176928838,9.1448947927,14.5889316771,23.9441780533,0.0957236159,0.3820318980,0.4968054671,5.4873410398,21.8999177204,28.4792942927
0.7800000000,9143.3668461489,29990.2432553682,994.6036985119,0.0008914394,14.8261049401,0.0251530312,-1.3100629475,-75.0991498547,0.1565404049,8.9736537857,0.0000000002,0.0000000003,7.6272249465,0.0000000005,0.0000000009,25.0172978247,0.1619227174,0.2574724235,0.4233925260,9.2821939915,14.7595656758,24.2709091361,0.0946695448,0.3820989892,0.4964928698,5.4269165798,21.9037637139,28.4613747031
0.7900000000,9143.2900849744,29989.9914787160,994.6047795813,0.0008914477,15.0161833293,0.0254754784,-1.3069648389,-74.9215512723,0.1587365682,9.0995484933,0.0000000002,0.0000000003,7.7250099439,0.0000000005,0.0000000009,25.3380326159,0.1643259007,0.2604369252,0.4291009199,9.4199560925,14.9295052666,24.5981419031,0.0936158148,0.3821569636,0.4961814947,5.3665116737,21.9070870836,28.4435251724
0.8000000000,9143.2123459500,29989.7364947159,994.6058744222,0.0008914560,15.2062617231,0.0257979247,-1.3038753140,-74.7444447497,0.1609358147,9.2256199481,0.0000000002,0.0000000003,7.8227949435,0.0000000005,0.0000000009,25.6587674148,0.1667371431,0.2633891742,0.4348181051,9.5581801794,15.0987424700,24.9258786386,0.0925624664,0.3822058358,0.4958713480,5.3061286480,21.9098886781,28.4257460621
0.8100000000,9143.1336290755,29989.4783033677,994.6069830348,0.0008914645,15.3963401215,0.0261203698,-1.3007944623,-74.5678354179,0.1631380899,9.3518650258,0.0000000002,0.0000000003,7.9205799456,0.0000000005,0.0000000009,25.9795022217,0.1691564279,0.2663290314,0.4405441201,9.6968652909,15.2672693186,25.2541215369,0.0915095402,0.3822456212,0.4955624357,5.2457698215,21.9121693707,28.4080377176
0.8200000000,9143.0539343511,29989.2169046715,994.6081054190,0.0008914731,15.5864185247,0.0264428139,-1.2977223734,-74.3917284098,0.1653433399,9.4782806286,0.0000000002,0.0000000003,8.0183649502,0.0000000005,0.0000000009,26.3002370365,0.1715837373,0.2692563582,0.4462790015,9.8360104188,15.4350778573,25.5828727001,0.0904570765,0.3822763355,0.4952547637,5.1854375052,21.9139300596,28.3904004679
0.8300000000,9142.9732617765,29988.9522986270,994.6092415747,0.0008914818,15.7764969327,0.0267652569,-1.2946591368,-74.2161288604,0.1675515109,9.6048636849,0.0000000002,0.0000000003,8.1161499571,0.0000000005,0.0000000009,26.6209718594,0.1740190531,0.2721710159,0.4520227844,9.9756145066,15.6021601447,25.9121341372,0.0894051154,0.3822979946,0.4949483374,5.1251340021,21.9151716678,28.3728346256
0.8400000000,9142.8916113519,29988.6844852342,994.6103915021,0.0008914906,15.9665753455,0.0270876988,-1.2916048422,-74.0410419071,0.1697625500,9.7316111490,0.0000000002,0.0000000003,8.2139349666,0.0000000005,0.0000000009,26.9417066905,0.1764623558,0.2750728662,0.4577755021,10.1156764480,15.7685082533,26.2419077631,0.0883536969,0.3823106153,0.4946431618,5.0648616071,21.9158951427,28.3553404873
0.8500000000,9142.8089830772,29988.4134644932,994.6115552010,0.0008914995,16.1566537632,0.0274101396,-1.2885595791,-73.8664726894,0.1719764045,9.8585200014,0.0000000002,0.0000000003,8.3117199786,0.0000000005,0.0000000009,27.2624415299,0.1789136254,0.2779617712,0.4635371864,10.2561950854,15.9341142704,26.5721953963,0.0873028610,0.3823142143,0.4943392420,5.0046226068,21.9161014562,28.3379183333
0.8600000000,9142.7253769523,29988.1392364036,994.6127326715,0.0008915085,16.3467321859,0.0277325792,-1.2855234374,-73.6924263492,0.1741930220,9.9855872480,0.0000000002,0.0000000003,8.4095049932,0.0000000005,0.0000000009,27.5831763776,0.1813728406,0.2808375930,0.4693078672,10.3971692082,16.0989702990,26.9029987586,0.0862526474,0.3823088091,0.4940365826,4.9444192800,21.9157916045,28.3205684276
0.8700000000,9142.6407929773,29987.8618009656,994.6139239137,0.0008915176,16.5368106137,0.0280550177,-1.2824965068,-73.5189080308,0.1764123508,10.1128099204,0.0000000002,0.0000000003,8.5072900103,0.0000000005,0.0000000010,27.9039112338,0.1838399795,0.2837001942,0.4750875730,10.5385975514,16.2630684586,27.2343194732,0.0852030958,0.3822944175,0.4937351878,4.8842538968,21.9149666076,28.3032910183
0.8800000000,9142.5552311521,29987.5811581789,994.6151289274,0.0008915268,16.7268890465,0.0283774550,-1.2794788769,-73.3459228806,0.1786343396,10.2401850753,0.0000000002,0.0000000003,8.6050750301,0.0000000005,0.0000000010,28.2246460986,0.1863150190,0.2865494377,0.4808763303,10.6804787939,16.4264008858,27.5661590635,0.0841542454,0.3822710577,0.4934350617,4.8241287191,21.9136275099,28.2860863374
0.8900000000,9142.4686914767,29987.2973080436,994.6163477127,0.0008915361,16.9169674844,0.0286998912,-1.2764706377,-73.1734760476,0.1808589375,10.3677097947,0.0000000002,0.0000000003,8.7028600525,0.0000000005,0.0000000010,28.5453809721,0.1887979349,0.2893851865,0.4866741639,10.8228115574,16.5889597353,27.8985189519,0.0831061358,0.3822387483,0.4931362080,4.7640460004,21.9117753793,28.2689546008
0.9000000000,9142.3811739511,29987.0102505595,994.6175802696,0.0008915455,17.1070459275,0.0290223262,-1.2734718790,-73.0015726831,0.1830860940,10.4953811851,0.0000000002,0.0000000003,8.8006450775,0.0000000005,0.0000000010,28.8661158543,0.1912887024,0.2922073042,0.4924810969,10.9655944040,16.7507371807,28.2314004582,0.0820588060,0.3821975084,0.4928386304,4.7040079856,21.9094113076,28.2518960085
0.9100000000,9142.2926785752,29986.7199857265,994.6188265982,0.0008915550,17.2971243759,0.0293447600,-1.2704826907,-72.8302179408,0.1853157590,10.6231963778,0.0000000002,0.0000000003,8.8984301053,0.0000000006,0.0000000010,29.1868507454,0.1937872951,0.2950156545,0.4982971504,11.1088258358,16.9117254153,28.5648047986,0.0810122950,0.3821473574,0.4925423319,4.6440169108,21.9065364100,28.2349107446
0.9200000000,9142.2032053489,29986.4265135446,994.6200866983,0.0008915647,17.4872028296,0.0296671926,-1.2675031628,-72.6594169769,0.1875478830,10.7511525285,0.0000000002,0.0000000003,8.9962151358,0.0000000006,0.0000000010,29.5075856455,0.1962936860,0.2978101016,0.5041223438,11.2525042922,17.0719166526,28.8987330842,0.0799666417,0.3820883152,0.4922473155,4.5840750038,21.9031518250,28.2179989772
0.9300000000,9142.1127542724,29986.1298340136,994.6213605700,0.0008915744,17.6772812887,0.0299896239,-1.2645333852,-72.4891749498,0.1897824167,10.8792468169,0.0000000002,0.0000000003,9.0940001691,0.0000000006,0.0000000010,29.8283205546,0.1988078466,0.3005905101,0.5099566947,11.3966281493,17.2313031281,29.2331863197,0.0789218849,0.3820204020,0.4919535839,4.5241844833,21.8992587145,28.2011608588
0.9400000000,9142.0213253456,29985.8299471334,994.6226482133,0.0008915842,17.8673597532,0.0303120541,-1.2615734480,-72.3194970205,0.1920193113,11.0074764467,0.0000000002,0.0000000003,9.1917852052,0.0000000006,0.0000000010,30.1490554729,0.2013297475,0.3033567449,0.5158002187,11.5411957178,17.3898770990,29.5681654022,0.0778780630,0.3819436386,0.4916611394,4.4643475593,21.8948582634,28.1843965259
0.9500000000,9141.9289185683,29985.5268529041,994.6239496282,0.0008915942,18.0574382232,0.0306344829,-1.2586234413,-72.1503883521,0.1942585186,11.1358386451,0.0000000002,0.0000000003,9.2895702440,0.0000000006,0.0000000010,30.4697904005,0.2038593581,0.3061086714,0.5216529295,11.6862052419,17.5476308460,29.9036711199,0.0768352144,0.3818580460,0.4913699842,4.4045664329,21.8899516796,28.1677060997
0.9600000000,9141.8355339407,29985.2205513254,994.6252648147,0.0008916042,18.2475166987,0.0309569105,-1.2556834550,-71.9818541103,0.1964999904,11.2643306626,0.0000000002,0.0000000003,9.3873552858,0.0000000006,0.0000000011,30.7905253374,0.2063966465,0.3088461553,0.5275148391,11.8316548975,17.7045566737,30.2397041506,0.0757933775,0.3817636456,0.4910801201,4.3448432961,21.8845401937,28.1510896854
0.9700000000,9141.7411714626,29984.9110423973,994.6265937728,0.0008916144,18.4375951799,0.0312793369,-1.2527535795,-71.8138994629,0.1987436794,11.3929497729,0.0000000002,0.0000000003,9.4851403304,0.0000000006,0.0000000011,31.1112602838,0.2089415798,0.3115690628,0.5333859572,11.9775427906,17.8606469118,30.5762650606,0.0747525902,0.3816604594,0.4907915486,4.2851803320,21.8786250589,28.1345473728
0.9800000000,9141.6458311341,29984.5983261197,994.6279365025,0.0008916247,18.6276736667,0.0316017619,-1.2498339049,-71.6465295801,0.2009895382,11.5216932725,0.0000000002,0.0000000003,9.5829253780,0.0000000006,0.0000000011,31.4319952397,0.2114941236,0.3142772605,0.5392662917,12.1238669562,18.0158939155,30.9133543035,0.0737128906,0.3815485095,0.4905042711,4.2255797144,21.8722075510,28.1180792363
0.9900000000,9141.5495129550,29984.2824024925,994.6292930038,0.0008916350,18.8177521592,0.0319241857,-1.2469245214,-71.4797496343,0.2032375202,11.6505584802,0.0000000002,0.0000000003,9.6807104284,0.0000000006,0.0000000011,31.7527302053,0.2140542423,0.3169706156,0.5451558487,12.2706253566,18.1702900673,31.2509722188,0.0726743163,0.3814278187,0.4902182886,4.1660436080,21.8652889682,28.1016853347
1.0000000000,9141.4522169255,29983.9632715156,994.6306632767,0.0008916455,19.0078306575,0.0322466081,-1.2440255193,-71.3135648001,0.2054875789,11.7795427372,0.0000000002,0.0000000003,9.7784954819,0.0000000006,0.0000000011,32.0734651806,0.2166218992,0.3196489957,0.5510546320,12.4178158799,18.3238277772,31.5891190307,0.0716369049,0.3812984099,0.4899336019,4.1065741683,21.8578706306,28.0853657117
1.0100000000,9141.3539430454,29983.6409331889,994.6320473213,0.0008916561,19.1979091617,0.0325690292,-1.2411369889,-71.1479802540,0.2077396683,11.9086434066,0.0000000002,0.0000000003,9.8762805384,0.0000000006,0.0000000011,32.3942001658,0.2191970561,0.3223122688,0.5569626434,12.5654363384,18.4764994837,31.9277948468,0.0706006940,0.3811603066,0.4896502113,4.0471735414,21.8499538807,28.0691203955
1.0200000000,9141.2546913147,29983.3153875122,994.6334451374,0.0008916668,19.3879876717,0.0328914489,-1.2382590205,-70.9830011750,0.2099937429,12.0378578729,0.0000000002,0.0000000003,9.9740655979,0.0000000006,0.0000000011,32.7149351610,0.2217796735,0.3249603035,0.5628798829,12.7134844676,18.6282976553,32.2669996570,0.0695657207,0.3810135326,0.4893681173,3.9878438638,21.8415400826,28.0529493992
1.0300000000,9141.1544617334,29982.9866344856,994.6348567251,0.0008916776,19.5780661877,0.0332138673,-1.2353917045,-70.8186327437,0.2122497573,12.1671835423,0.0000000002,0.0000000003,10.0718506604,0.0000000006,0.0000000011,33.0356701662,0.2243697105,0.3275929691,0.5688063481,12.8619579242,18.7792147910,32.6067333323,0.0685320223,0.3808581120,0.4890873197,3.9285872627,21.8326306223,28.0368527210
1.0400000000,9141.0532543015,29982.6546741089,994.6362820844,0.0008916885,19.7681447098,0.0335362844,-1.2325351314,-70.6548801429,0.2145076668,12.2966178417,0.0000000002,0.0000000004,10.1696357261,0.0000000005,0.0000000011,33.3564051815,0.2269671248,0.3302101352,0.5747420348,13.0108542853,18.9292434214,32.9469956233,0.0674996355,0.3806940694,0.4888078182,3.8694058559,21.8232269072,28.0208303436
1.0500000000,9140.9510690189,29982.3195063820,994.6377212153,0.0008916995,19.9582232379,0.0338587000,-1.2296893915,-70.4917485571,0.2167674267,12.4261582186,0.0000000002,0.0000000004,10.2674207949,0.0000000005,0.0000000012,33.6771402071,0.2295718727,0.3328116721,0.5806869363,13.1601710464,19.0783761096,33.2877861595,0.0664685972,0.3805214297,0.4885296123,3.8103017514,21.8133303665,28.0048822352
1.0600000000,9140.8479058856,29981.9811313047,994.6391741178,0.0008917106,20.1483017721,0.0341811142,-1.2268545753,-70.3292431727,0.2190289929,12.5558021412,0.0000000002,0.0000000004,10.3652058668,0.0000000005,0.0000000012,33.9978752431,0.2321839092,0.3353974507,0.5866410443,13.3099056204,19.2266054525,33.6291044478,0.0654389440,0.3803402183,0.4882527012,3.7512770474,21.8029424503,27.9890083489
1.0700000000,9140.7437649016,29981.6395488771,994.6406407920,0.0008917218,20.3383803125,0.0345035271,-1.2240307734,-70.1673691775,0.2212923216,12.6855470975,0.0000000002,0.0000000004,10.4629909419,0.0000000005,0.0000000012,34.3186102895,0.2348031875,0.3379673423,0.5926043478,13.4600553360,19.3739240816,33.9709498715,0.0644107124,0.3801504608,0.4879770838,3.6923338326,21.7920646299,27.9732086231
1.0800000000,9140.6386460667,29981.2947590989,994.6421212377,0.0008917331,20.5284588592,0.0348259385,-1.2212180763,-70.0061317614,0.2235573693,12.8153905950,0.0000000002,0.0000000004,10.5607760202,0.0000000005,0.0000000012,34.6393453464,0.2374296597,0.3405212191,0.5985768339,13.6106174365,19.5203246641,34.3133216890,0.0633839386,0.3799521832,0.4877027587,3.6334741859,21.7806983979,27.9574829815
1.0900000000,9140.5325493811,29980.9467619701,994.6436154550,0.0008917445,20.7185374122,0.0351483485,-1.2184165745,-69.8455361153,0.2258240928,12.9453301610,0.0000000002,0.0000000004,10.6585611018,0.0000000005,0.0000000012,34.9600804140,0.2400632761,0.3430589539,0.6045584876,13.7615890786,19.6657999037,34.6562190330,0.0623586586,0.3797454119,0.4874297244,3.5747001762,21.7688452672,27.9418313332
1.1000000000,9140.4254748447,29980.5955574906,994.6451234440,0.0008917560,20.9086159715,0.0354707570,-1.2156263585,-69.6855874319,0.2280924494,13.0753633413,0.0000000002,0.0000000004,10.7563461867,0.0000000005,0.0000000012,35.2808154923,0.2427039857,0.3455804199,0.6105492914,13.9129673307,19.8103425421,34.9996409091,0.0613349085,0.3795301737,0.4871579790,3.5160138625,21.7565067719,27.9262535728
1.1100000000,9140.3174224574,29980.2411456603,994.6466452045,0.0008917677,21.0986945373,0.0357931641,-1.2128475191,-69.5262909048,0.2303623966,13.2054877009,0.0000000002,0.0000000004,10.8541312748,0.0000000005,0.0000000012,35.6015505814,0.2453517356,0.3480854913,0.6165492258,14.0647491719,19.9539453596,35.3435861951,0.0603127239,0.3793064957,0.4868875205,3.4574172938,21.7436844663,27.9107495806
1.1200000000,9140.2083922192,29979.8835264790,994.6481807367,0.0008917794,21.2887731095,0.0361155697,-1.2100801468,-69.3676517292,0.2326338921,13.3357008226,0.0000000002,0.0000000004,10.9519163663,0.0000000005,0.0000000012,35.9222856815,0.2480064716,0.3505740427,0.6225582690,14.2169314907,20.0966011765,35.6880536394,0.0592921404,0.3790744054,0.4866183464,3.3989125091,21.7303799250,27.8953192223
1.1300000000,9140.0983841301,29979.5226999466,994.6497300404,0.0008917913,21.4788516883,0.0364379738,-1.2073243323,-69.2096751010,0.2349068943,13.4660003076,0.0000000002,0.0000000004,11.0497014612,0.0000000005,0.0000000012,36.2430207926,0.2506681378,0.3530459498,0.6285763969,14.3695110837,20.2383028540,36.0330418607,0.0582731935,0.3788339305,0.4863504543,3.3405015373,21.7165947432,27.8799623497
1.1400000000,9139.9873981900,29979.1586660631,994.6512931158,0.0008918032,21.6689302737,0.0367603764,-1.2045801662,-69.0523662172,0.2371813614,13.5963837742,0.0000000002,0.0000000004,11.1474865594,0.0000000005,0.0000000013,36.5637559149,0.2533366768,0.3555010886,0.6346035830,14.5224846545,20.3790432952,36.3785493466,0.0572559183,0.3785850993,0.4860838413,3.2821863971,21.7023305358,27.8646788003
1.1500000000,9139.8754343989,29978.7914248283,994.6528699628,0.0008918153,21.8590088657,0.0370827775,-1.2018477393,-68.8957302756,0.2394572523,13.7268488584,0.0000000002,0.0000000004,11.2452716611,0.0000000005,0.0000000013,36.8844910484,0.2560120293,0.3579393361,0.6406397988,14.6758488125,20.5188154466,36.7245744526,0.0562403498,0.3783279404,0.4858185043,3.2239690969,21.6875889377,27.8494683976
1.1600000000,9139.7624927567,29978.4209762421,994.6544605814,0.0008918274,22.0490874645,0.0374051770,-1.1991271421,-68.7397724748,0.2417345260,13.8573932128,0.0000000002,0.0000000004,11.3430567662,0.0000000005,0.0000000013,37.2052261932,0.2586941346,0.3603605701,0.6466850131,14.8296000713,20.6576122986,37.0711154012,0.0552265230,0.3780624824,0.4855544399,3.1658516349,21.6723716036,27.8343309512
1.1700000000,9139.6485732635,29978.0473203044,994.6560649715,0.0008918397,22.2391660700,0.0377275751,-1.1964184654,-68.5844980138,0.2440131419,13.9880145065,0.0000000002,0.0000000004,11.4408418748,0.0000000005,0.0000000013,37.5259613495,0.2613829301,0.3627646690,0.6527391927,14.9837348485,20.7954268871,37.4181702814,0.0542144724,0.3777887547,0.4852916447,3.1078359988,21.6566802079,27.8192662571
1.1800000000,9139.5336759192,29977.6704570151,994.6576831333,0.0008918520,22.4292446824,0.0380499715,-1.1937217998,-68.4299120919,0.2462930596,14.1187104248,0.0000000002,0.0000000004,11.5386269870,0.0000000005,0.0000000013,37.8466965173,0.2640783518,0.3651515122,0.6588023018,15.1382494638,20.9322522945,37.7657370473,0.0532042327,0.3775067869,0.4850301148,3.0499241662,21.6405164442,27.8042740972
1.1900000000,9139.4178007238,29977.2903863740,994.6593150668,0.0008918645,22.6193233016,0.0383723664,-1.1910372362,-68.2760199090,0.2485742390,14.2494786688,0.0000000002,0.0000000004,11.6364121026,0.0000000005,0.0000000013,38.1674316967,0.2667803335,0.3675209799,0.6648743025,15.2931401381,21.0680816505,38.1138135175,0.0521958380,0.3772166087,0.4847698462,2.9921181039,21.6238820256,27.7893542402
1.2000000000,9139.3009476772,29976.9071083811,994.6609607718,0.0008918771,22.8094019278,0.0386947597,-1.1883648652,-68.1228266648,0.2508566402,14.3803169548,0.0000000002,0.0000000004,11.7341972219,0.0000000005,0.0000000013,38.4881668878,0.2694888078,0.3698729530,0.6709551542,15.4484029927,21.2029081337,38.4623973743,0.0511893226,0.3769182504,0.4845108346,2.9344197683,21.6067786842,27.7745064410
1.2100000000,9139.1831167793,29976.5206230362,994.6626202484,0.0008918898,22.9994805610,0.0390171514,-1.1857047774,-67.9703375592,0.2531402237,14.5112230141,0.0000000002,0.0000000004,11.8319823447,0.0000000005,0.0000000013,38.8089020908,0.2722037051,0.3722073134,0.6770448142,15.6040340483,21.3367249724,38.8114861629,0.0501847204,0.3766117425,0.4842530755,2.8768311053,21.5892081712,27.7597304413
1.2200000000,9139.0643080303,29976.1309303393,994.6642934966,0.0008919026,23.1895592013,0.0393395416,-1.1830570637,-67.8185577917,0.2554249501,14.6421945927,0.0000000002,0.0000000004,11.9297674712,0.0000000005,0.0000000013,39.1296373057,0.2749249542,0.3745239439,0.6831432372,15.7600292236,21.4695254459,39.1610772908,0.0491820651,0.3762971160,0.4839965641,2.8193540501,21.5711722566,27.7450259696
1.2300000000,9138.9445214299,29975.7380302901,994.6659805165,0.0008919155,23.3796378487,0.0396619300,-1.1804218147,-67.6674925616,0.2577107804,14.7732294508,0.0000000002,0.0000000004,12.0275526014,0.0000000005,0.0000000014,39.4503725326,0.2776524823,0.3768227281,0.6892503756,15.9163843351,21.6013028856,39.5111680269,0.0481813903,0.3759744020,0.4837412956,2.7619905272,21.5526727289,27.7303927410
1.2400000000,9138.8237569782,29975.3419228886,994.6676813080,0.0008919285,23.5697165033,0.0399843169,-1.1777991211,-67.5171470676,0.2599976758,14.9043253623,0.0000000002,0.0000000004,12.1253377352,0.0000000005,0.0000000014,39.7711077716,0.2803862144,0.3791035507,0.6953661793,16.0730950955,21.7320506761,39.8617555009,0.0471827294,0.3756436321,0.4834872647,2.7047424504,21.5337113955,27.7158304579
1.2500000000,9138.7020146752,29974.9426081346,994.6693958710,0.0008919416,23.7597951651,0.0403067021,-1.1751890735,-67.3675265077,0.2622855976,15.0354801145,0.0000000002,0.0000000004,12.2231228728,0.0000000005,0.0000000014,40.0918430228,0.2831260741,0.3813662971,0.7014905958,16.2301571132,21.8617622566,40.2128367028,0.0461861156,0.3753048381,0.4832344659,2.6476117226,21.5142900816,27.7013388095
1.2600000000,9138.5792945208,29974.5400860281,994.6711242057,0.0008919548,23.9498738342,0.0406290856,-1.1725917627,-67.2186360791,0.2645745074,15.1666915079,0.0000000002,0.0000000004,12.3209080141,0.0000000005,0.0000000014,40.4125782864,0.2858719828,0.3836108540,0.7076235702,16.3875658916,21.9904311215,40.5644084822,0.0451915819,0.3749580521,0.4829828937,2.5906002359,21.4944106312,27.6869174725
1.2700000000,9138.4555965149,29974.1343565689,994.6728663120,0.0008919681,24.1399525107,0.0409514675,-1.1700072793,-67.0704809779,0.2668643672,15.2979573556,0.0000000002,0.0000000004,12.4186931593,0.0000000005,0.0000000014,40.7333135624,0.2886238602,0.3858371088,0.7137650450,16.5453168280,22.1180508224,40.9164675478,0.0441991611,0.3746033067,0.4827325422,2.5337098717,21.4740749060,27.6725661106
1.2800000000,9138.3309206576,29973.7254197568,994.6746221899,0.0008919815,24.3300311946,0.0412738477,-1.1674357138,-66.9230663990,0.2691551390,15.4292754826,0.0000000002,0.0000000004,12.5164783082,0.0000000005,0.0000000014,41.0540488508,0.2913816243,0.3880449500,0.7199149604,16.7034052134,22.2446149683,41.2690104668,0.0432088858,0.3742406346,0.4824834052,2.4769425000,21.4532847857,27.6582843752
1.2900000000,9138.2052669487,29973.3132755918,994.6763918395,0.0008919950,24.5201098860,0.0415962262,-1.1648771570,-66.7763975359,0.2714467850,15.5606437262,0.0000000002,0.0000000004,12.6142634610,0.0000000005,0.0000000014,41.3747841519,0.2941451909,0.3902342672,0.7260732539,16.8618262311,22.3701172275,41.6220336649,0.0422207885,0.3738700689,0.4822354766,2.4202999802,21.4320421677,27.6440719051
1.3000000000,9138.0786353883,29972.8979240738,994.6781752606,0.0008920087,24.7101885849,0.0419186029,-1.1623316994,-66.6304795806,0.2737392678,15.6920599348,0.0000000002,0.0000000004,12.7120486176,0.0000000005,0.0000000014,41.6955194658,0.2969144742,0.3924049510,0.7322398609,17.0205749567,22.4945513288,41.9755334252,0.0412349015,0.3734916431,0.4819887497,2.3637841604,21.4103489669,27.6299283269
1.3100000000,9137.9510259764,29972.4793652025,994.6799724534,0.0008920224,24.9002672913,0.0422409780,-1.1597994314,-66.4853177231,0.2760325499,15.8235219679,0.0000000002,0.0000000004,12.8098337782,0.0000000005,0.0000000014,42.0162547924,0.2996893865,0.3945568930,0.7384147138,17.1796463571,22.6179110619,42.3295058884,0.0402512566,0.3731053908,0.4817432179,2.3073968777,21.3882071158,27.6158532551
1.3200000000,9137.8224387128,29972.0575989779,994.6817834178,0.0008920363,25.0903460055,0.0425633513,-1.1572804436,-66.3409171516,0.2783265942,15.9550276956,0.0000000002,0.0000000004,12.9076189427,0.0000000005,0.0000000014,42.3369901319,0.3024698378,0.3966899860,0.7445977430,17.3390352905,22.7401902794,42.6839470522,0.0392698859,0.3727113461,0.4814988742,2.2511399579,21.3656185641,27.6018462919
1.3300000000,9137.6928735975,29971.6326253998,994.6836081538,0.0008920502,25.2804247273,0.0428857228,-1.1547748266,-66.1972830521,0.2806213639,16.0865749983,0.0000000002,0.0000000004,13.0054041111,0.0000000005,0.0000000014,42.6577254845,0.3052557368,0.3988041239,0.7507888761,17.4987365051,22.8613828976,43.0388527712,0.0382908210,0.3723095432,0.4812557115,2.1950152159,21.3425852787,27.5879070279
1.3400000000,9137.5623306305,29971.2044444682,994.6854466614,0.0008920643,25.4705034570,0.0432080926,-1.1522826706,-66.0544206081,0.2829168219,16.2181617662,0.0000000002,0.0000000004,13.1031892836,0.0000000005,0.0000000015,42.9784608501,0.3080469898,0.4008992017,0.7569880383,17.6587446393,22.9814828978,43.3942187564,0.0373140933,0.3719000168,0.4810137224,2.1390244550,21.3191092432,27.5740350415
1.3500000000,9137.4308098118,29970.7730561828,994.6872989406,0.0008920784,25.6605821944,0.0435304606,-1.1498040661,-65.9123350007,0.2852129318,16.3497858986,0.0000000002,0.0000000004,13.2009744600,0.0000000005,0.0000000015,43.2991962289,0.3108435014,0.4029751155,0.7631951523,17.8190542211,23.1004843273,43.7500405757,0.0363397340,0.3714828018,0.4807728994,2.0831694672,21.2951924582,27.5602298998
1.3600000000,9137.2983111413,29970.3384605435,994.6891649915,0.0008920927,25.8506609397,0.0438528267,-1.1473391035,-65.7710314080,0.2875096570,16.4814453040,0.0000000002,0.0000000005,13.2987596406,0.0000000005,0.0000000015,43.6199316211,0.3136451742,0.4050317627,0.7694101382,17.9796596679,23.2183813008,44.1063136527,0.0353677744,0.3710579333,0.4805332347,2.0274520334,21.2708369409,27.5464911583
1.3700000000,9137.1648346190,29969.9006575503,994.6910448139,0.0008921071,26.0407396930,0.0441751911,-1.1448878729,-65.6305150053,0.2898069611,16.6131378996,0.0000000002,0.0000000005,13.3965448252,0.0000000005,0.0000000015,43.9406670266,0.3164519089,0.4070690418,0.7756329137,18.1405552859,23.3351680013,44.4630332680,0.0343982451,0.3706254469,0.4802947203,1.9718739229,21.2460447250,27.5328183609
1.3800000000,9137.0303802448,29969.4596472030,994.6929384080,0.0008921215,26.2308184543,0.0444975537,-1.1424504646,-65.4907909645,0.2921048081,16.7448616105,0.0000000002,0.0000000005,13.4943300139,0.0000000005,0.0000000015,44.2614024457,0.3192636042,0.4090868526,0.7818633940,18.3017352700,23.4508386817,44.8201945578,0.0334311769,0.3701853782,0.4800573481,1.9164368934,21.2208178605,27.5192110404
1.3900000000,9136.8949480187,29969.0154295014,994.6948457737,0.0008921361,26.4208972236,0.0448199144,-1.1400269688,-65.3518644542,0.2944031618,16.8766143697,0.0000000002,0.0000000005,13.5921152068,0.0000000005,0.0000000015,44.5821378783,0.3220801568,0.4110850959,0.7881014917,18.4631937040,23.5653876655,45.1777925150,0.0324666003,0.3697377634,0.4798211099,1.8611426914,21.1951584136,27.5056687184
1.4000000000,9136.7585379407,29968.5680044454,994.6967669111,0.0008921508,26.6109760010,0.0451422733,-1.1376174756,-65.2137406393,0.2967019863,17.0083941174,0.0000000002,0.0000000005,13.6899004039,0.0000000005,0.0000000015,44.9028733247,0.3249014618,0.4130636742,0.7943471169,18.6249245597,23.6788093484,45.5358219890,0.0315045455,0.3692826388,0.4795859969,1.8059930517,21.1690684665,27.4921909056
1.4100000000,9136.6211500106,29968.1173720348,994.6987018200,0.0008921656,26.8010547867,0.0454646303,-1.1352220750,-65.0764246808,0.2990012457,17.1401988007,0.0000000002,0.0000000005,13.7876856051,0.0000000005,0.0000000015,45.2236087848,0.3277274118,0.4150224908,0.8006001774,18.7869216976,23.7910981989,45.8942776855,0.0305450425,0.3688200409,0.4793520006,1.7509896974,21.1425501172,27.4787771018
1.4200000000,9136.4827842286,29967.6635322696,994.7006505006,0.0008921805,26.9911335805,0.0457869855,-1.1328408569,-64.9399217357,0.3013009045,17.2720263734,0.0000000002,0.0000000005,13.8854708106,0.0000000005,0.0000000015,45.5443442588,0.3305578980,0.4169614506,0.8068605782,18.9491788665,23.9022487600,46.2531541671,0.0295881213,0.3683500067,0.4791191119,1.6961343401,21.1156054794,27.4654267960
1.4300000000,9136.3434405944,29967.2064851496,994.7026129528,0.0008921955,27.1812123827,0.0461093388,-1.1304739114,-64.8042369565,0.3036009270,17.4038747953,0.0000000002,0.0000000005,13.9832560204,0.0000000005,0.0000000015,45.8650797469,0.3333928093,0.4188804597,0.8131282221,19.1116897035,24.0122556504,46.6124458536,0.0286338114,0.3678725732,0.4788873218,1.6414286796,21.0882366824,27.4521394666
1.4400000000,9136.2031191081,29966.7462306747,994.7045891766,0.0008922106,27.3712911932,0.0464316901,-1.1281213280,-64.6693754912,0.3059012777,17.5357420317,0.0000000002,0.0000000005,14.0810412344,0.0000000005,0.0000000016,46.1858152490,0.3362320327,0.4207794255,0.8194030092,19.2744477345,24.1211135650,46.9721470220,0.0276821424,0.3673877780,0.4786566210,1.5868744040,21.0604458709,27.4389145818
1.4500000000,9136.0618197697,29966.2827688446,994.7065791721,0.0008922258,27.5613700121,0.0467540396,-1.1257831966,-64.5353424830,0.3082019212,17.6676260534,0.0000000002,0.0000000005,14.1788264528,0.0000000005,0.0000000016,46.5065507653,0.3390754534,0.4226582569,0.8256848371,19.4374463737,24.2288172766,47.3322518074,0.0267331434,0.3668956586,0.4784270001,1.5324731896,21.0322352046,27.4257515992
1.4600000000,9135.9195425791,29965.8160996593,994.7085829391,0.0008922411,27.7514488394,0.0470763871,-1.1234596069,-64.4021430701,0.3105028221,17.7995248359,0.0000000002,0.0000000005,14.2766116756,0.0000000005,0.0000000016,46.8272862959,0.3419229546,0.4245168641,0.8319736011,19.6006789246,24.3353616371,47.6927542029,0.0257868436,0.3663962530,0.4781984494,1.4782267008,21.0036068586,27.4126499664
1.4700000000,9135.7762875362,29965.3462231187,994.7106004778,0.0008922565,27.9415276753,0.0473987327,-1.1211506483,-64.2697823855,0.3128039454,17.9314363594,0.0000000002,0.0000000005,14.3743969027,0.0000000005,0.0000000016,47.1480218408,0.3447744174,0.4263551586,0.8382691939,19.7641385797,24.4407415780,48.0536480605,0.0248432716,0.3658895994,0.4779709591,1.4241365903,20.9745630226,27.3996091209
1.4800000000,9135.6320546410,29964.8731392225,994.7126317881,0.0008922721,28.1316065198,0.0477210763,-1.1188564103,-64.1382655565,0.3151052557,18.0633586077,0.0000000002,0.0000000005,14.4721821342,0.0000000005,0.0000000016,47.4687574003,0.3476297213,0.4281730535,0.8445715059,19.9278184211,24.5449521124,48.4149270916,0.0239024563,0.3653757363,0.4777445192,1.3702044986,20.9451059012,27.3866284905
1.4900000000,9135.4868438935,29964.3968479706,994.7146768701,0.0008922877,28.3216853729,0.0480434180,-1.1165769822,-64.0075977047,0.3174067180,18.1952895685,0.0000000002,0.0000000005,14.5699673702,0.0000000005,0.0000000016,47.7894929743,0.3504887437,0.4299704632,0.8508804249,20.0917114208,24.6479883354,48.7765848673,0.0229644258,0.3648547023,0.4775191196,1.3164320545,20.9152377135,27.3737074930
