Time, Altitude - m, Altitude - ft, SpeedofSound - ft/sec, AirDensity - slug/ft3,TransVel - ft/sec,Mach, AoA - rad, AoA - deg, AoS - rad, AoS - deg, u_NED, v_NED, w_NED, u_NED - ft/sec, v_NED - ft/sec, w_NED - ft/sec, phi_rad, theta_rad, psi_rad, phi_deg, theta_deg, psi_rad, roll_rate, pitch_rate, yaw_rate, roll_rate - deg, pitch_rate - deg, yaw_rate - deg 
0.0000000000,9146.3414634146,30000.0000000000,994.5618053589,0.0008911192,0.0000000002,0.0000000000,0.0000000000,0.0000000000,0.0000000000,0.0000000000,0.0000000001,0.0000000000,0.0000000000,0.0000000003,0.0000000000,0.0000000000,0.0000000000,0.0000000000,0.0000000000,0.0000000000,0.0000000000,0.0000000000,0.1745329252,0.3490658504,0.5235987756,10.0050721452,20.0101442904,30.0152164356
0.0100000000,9146.3409744901,29999.9983963276,994.5618122447,0.0008911192,0.1900782093,0.0003224882,-1.5673102510,-89.8458105644,0.0017544563,0.1005739255,-0.0006814585,0.0003448984,0.0977819261,-0.0022351839,0.0011312667,0.3207247176,0.0017544669,0.0034860715,0.0052390525,0.1005745355,0.1998384942,0.3003278506,0.1745329252,0.3490658504,0.5235987756,10.0050721452,20.0101442904,30.0152164356
0.0200000000,9146.3395077165,29999.9935853102,994.5618329020,0.0008911194,0.3801564186,0.0006449765,-1.5638333860,-89.6464998348,0.0035271202,0.2021916018,-0.0027208608,0.0013937735,0.1955459813,-0.0089244236,0.0045715769,0.6413908187,0.0035272056,0.0069628980,0.0104843085,0.2021965022,0.3991470192,0.6010113168,0.1745329252,0.3490658504,0.5235987756,10.0050721452,20.0101442904,30.0152164356
0.0300000000,9146.3370630939,29999.9855669480,994.5618673310,0.0008911196,0.5702346280,0.0009674647,-1.5603658069,-89.4477214165,0.0053179220,0.3048490304,-0.0061104359,0.0031677149,0.2932742998,-0.0200422299,0.0103901048,0.9619397034,0.0053182112,0.0104303727,0.0157358785,0.3048656129,0.5979194555,0.9020567283,0.1745329252,0.3490658504,0.5235987756,10.0050721452,20.0101442904,30.0152164356
0.0400000000,9146.3336406222,29999.9743412410,994.5619155315,0.0008911200,0.7603128376,0.0012899528,-1.5569075857,-89.2494794345,0.0071267915,0.4085421872,-0.0108420000,0.0056875674,0.3909490260,-0.0355617599,0.0186552210,1.2823128052,0.0071274789,0.0138883886,0.0209938720,0.4085815913,0.7961496673,1.2034703668,0.1745329252,0.3490658504,0.5235987756,10.0050721452,20.0101442904,30.0152164356
0.0500000000,9146.3292403015,29999.9599081890,994.5619775036,0.0008911205,0.9503910475,0.0016124409,-1.5534587936,-89.0517779749,0.0089536581,0.5132670244,-0.0169069578,0.0089739248,0.4885523194,-0.0554548214,0.0294344733,1.6024516075,0.0089550039,0.0173368384,0.0262583977,0.5133441704,0.9938315023,1.5052584662,0.1745329252,0.3490658504,0.5235987756,10.0050721452,20.0101442904,30.0152164356
0.0600000000,9146.3238621318,29999.9422677922,994.5620532473,0.0008911211,1.1404692576,0.0019349290,-1.5500195010,-88.8546210752,0.0107984508,0.6190194707,-0.0242963046,0.0130471241,0.5860663599,-0.0796918792,0.0427945670,1.9222976604,0.0108007817,0.0207756145,0.0315295636,0.6191530914,1.1909587919,1.8074272118,0.1745329252,0.3490658504,0.5235987756,10.0050721452,20.0101442904,30.0152164356
0.0700000000,9146.3175061129,29999.9214200504,994.5621427626,0.0008911218,1.3305474681,0.0022574169,-1.5465897775,-88.6580127236,0.0126610981,0.7257954322,-0.0330006282,0.0179272397,0.6834733528,-0.1082420606,0.0588013463,2.2417925973,0.0126648080,0.0242046089,0.0368074767,0.7260081028,1.3875253506,2.1099827399,0.1745329252,0.3490658504,0.5235987756,10.0050721452,20.0101442904,30.0152164356
0.0800000000,9146.3101722451,29999.8973649638,994.5622460494,0.0008911225,1.5206256790,0.0025799048,-1.5431696919,-88.4619568582,0.0145415283,0.8335907927,-0.0430101103,0.0236340777,0.7807555339,-0.1410731619,0.0775197750,2.5608781512,0.0145470785,0.0276237135,0.0420922432,0.8339089591,1.5835249764,2.4129311374,0.1745329252,0.3490658504,0.5235987756,10.0050721452,20.0101442904,30.0152164356
0.0900000000,9146.3018605281,29999.8701025322,994.5623631079,0.0008911234,1.7107038903,0.0029023926,-1.5397593119,-88.2664573674,0.0164396691,0.9424014144,-0.0543145291,0.0301871701,0.8778951744,-0.1781516555,0.0990139181,2.8794961719,0.0164475890,0.0310328197,0.0473839684,0.9428554196,1.7789514502,2.7162784411,0.1745329252,0.3490658504,0.5235987756,10.0050721452,20.0101442904,30.0152164356
0.1000000000,9146.2925709621,29999.8396327558,994.5624939379,0.0008911244,1.9007821022,0.0032248802,-1.5363587045,-88.0715180905,0.0183554481,1.0522231384,-0.0669032611,0.0376057693,0.9748745859,-0.2194426964,0.1233469234,3.1975886418,0.0183663353,0.0344318189,0.0526827567,1.0528472474,1.9737985361,3.0200306375,0.1745329252,0.3490658504,0.5235987756,10.0050721452,20.0101442904,30.0152164356
0.1100000000,9146.2823035471,29999.8059556344,994.5626385395,0.0008911255,2.0908603147,0.0035473677,-1.5329679358,-87.8771428173,0.0202887923,1.1630517852,-0.0807652834,0.0459088425,1.0716761259,-0.2649101297,0.1505810033,3.5150976930,0.0203033134,0.0378206019,0.0579887117,1.1638842080,2.1680599813,3.3241936620,0.1745329252,0.3490658504,0.5235987756,10.0050721452,20.0101442904,30.0152164356
0.1200000000,9146.2710582830,29999.7690711681,994.5627969126,0.0008911268,2.2809385278,0.0038698551,-1.5295870711,-87.6833352886,0.0222396284,1.2748831553,-0.0958891764,0.0551150661,1.1682822024,-0.3145164986,0.1807774168,3.8319656238,0.0222585192,0.0411990593,0.0633019359,1.2759660682,2.3617295156,3.6287733983,0.1745329252,0.3490658504,0.5235987756,10.0050721452,20.0101442904,30.0152164356
0.1300000000,9146.2588351698,29999.7289793568,994.5629690574,0.0008911281,2.4710167416,0.0041923423,-1.5262161749,-87.4900991968,0.0242078829,1.3877130297,-0.1122631256,0.0652428207,1.2646752788,-0.3682230521,0.2139964520,4.1481349144,0.0242319486,0.0445670815,0.0686225313,1.3890925950,2.5548008519,3.9337756782,0.1745329252,0.3490658504,0.5235987756,10.0050721452,20.0101442904,30.0152164356
0.1400000000,9146.2456342075,29999.6856802006,994.5631549737,0.0008911295,2.6610949562,0.0045148293,-1.5228553106,-87.2974381857,0.0261934817,1.5015371704,-0.1298749248,0.0763101855,1.3608378794,-0.4259897533,0.2502974084,4.4635482445,0.0262235976,0.0479245585,0.0739505984,1.5032635543,2.7472676857,4.2392062805,0.1745329252,0.3490658504,0.5235987756,10.0050721452,20.0101442904,30.0152164356
0.1500000000,9146.2314553962,29999.6391736994,994.5633546616,0.0008911310,2.8511731716,0.0048373161,-1.5195045410,-87.1053558512,0.0281963508,1.6163513209,-0.1487119781,0.0883349329,1.4567525940,-0.4877752882,0.2897385798,4.7781485085,0.0282334619,0.0512713800,0.0792862373,1.6184787096,2.9391236954,4.5450709309,0.1745329252,0.3490658504,0.5235987756,10.0050721452,20.0101442904,30.0152164356
0.1600000000,9146.2162987357,29999.5894598532,994.5635681211,0.0008911326,3.0412513878,0.0051598028,-1.5161639279,-86.9138557416,0.0302164155,1.7321512070,-0.1687613033,0.1013345236,1.5524020831,-0.5535370748,0.3323772375,5.0918788324,0.0302615375,0.0546074355,0.0846295469,1.7347378210,3.1303625419,4.8513753009,0.1745329252,0.3490658504,0.5235987756,10.0050721452,20.0101442904,30.0152164356
0.1700000000,9146.2001642262,29999.5365386620,994.5637953522,0.0008911344,3.2313296050,0.0054822892,-1.5128335326,-86.7229413576,0.0322536009,1.8489325370,-0.1900095342,0.1153261016,1.6477690824,-0.6232312721,0.3782696134,5.4046825903,0.0323078201,0.0579326139,0.0899806251,1.8520406436,3.3209778690,5.1581250076,0.1745329252,0.3490658504,0.5235987756,10.0050721452,20.0101442904,30.0152164356
0.1800000000,9146.1830518676,29999.4804101258,994.5640363549,0.0008911362,3.4214078232,0.0058047754,-1.5095134151,-86.5326161530,0.0343078319,1.9666910021,-0.2124429237,0.1303264889,1.7428364084,-0.6968127899,0.4274708837,5.7165034197,0.0343723053,0.0612468043,0.0953395690,1.9703869267,3.5109633030,5.4653256128,0.1745329252,0.3490658504,0.5235987756,10.0050721452,20.0101442904,30.0152164356
0.1900000000,9146.1649616599,29999.4210742446,994.5642911291,0.0008911382,3.6114860425,0.0061272614,-1.5062036350,-86.3428835352,0.0363790331,2.0854222776,-0.2360473471,0.1463521807,1.8375869630,-0.7742352986,0.4800351527,6.0272852385,0.0364549885,0.0645498950,0.1007064746,2.0897764122,3.7003124530,5.7729826222,0.1745329252,0.3490658504,0.5235987756,10.0050721452,20.0101442904,30.0152164356
0.2000000000,9146.1458936031,29999.3585310183,994.5645596749,0.0008911402,3.8015642628,0.0064497471,-1.5029042509,-86.1537468651,0.0384671286,2.2051220224,-0.2608083047,0.1634193406,1.9320037381,-0.8554512396,0.5360154370,6.3369722608,0.0385558652,0.0678417743,0.1060814370,2.2102088332,3.8890189107,6.0811014850,0.1745329252,0.3490658504,0.5235987756,10.0050721452,20.0101442904,30.0152164356
0.2100000000,9146.1258476972,29999.2927804469,994.5648419923,0.0008911424,3.9916424843,0.0067722325,-1.4996153205,-85.9652094580,0.0405720426,2.3257858805,-0.2867109255,0.1815437956,2.0260698209,-0.9404118356,0.5954636497,6.6455090126,0.0406749305,0.0711223301,0.1114645502,2.3316839132,4.0770762504,6.3896875929,0.1745329252,0.3490658504,0.5235987756,10.0050721452,20.0101442904,30.0152164356
0.2200000000,9146.1048239422,29999.2238225304,994.5651380813,0.0008911446,4.1817207071,0.0070947177,-1.4963369011,-85.7772745836,0.0426936987,2.4474094809,-0.3137399701,0.2007410320,2.1197683988,-1.0290671019,0.6584305851,6.9528403480,0.0428121794,0.0743914501,0.1168559073,2.4542013645,4.2644780293,6.6987462799,0.1745329252,0.3490658504,0.5235987756,10.0050721452,20.0101442904,30.0152164356
0.2300000000,9146.0828223381,29999.1516572689,994.5654479418,0.0008911470,4.3717989311,0.0074172026,-1.4930690487,-85.5899454667,0.0448320205,2.5699884380,-0.3418798345,0.2210261902,2.2130827637,-1.1213658570,0.7249659039,7.2589114650,0.0449676066,0.0776490214,0.1222556003,2.5777608868,4.4512177872,7.0082828207,0.1745329252,0.3490658504,0.5235987756,10.0050721452,20.0101442904,30.0152164356
0.2400000000,9146.0598428848,29999.0762846622,994.5657715740,0.0008911495,4.5618771565,0.0077396872,-1.4898118189,-85.4032252878,0.0469869313,2.6935183527,-0.3711145532,0.2424140604,2.3059963174,-1.2172557344,0.7951181180,7.5636679212,0.0471412067,0.0808949311,0.1276637202,2.7023621662,4.6372890467,7.3183024308,0.1745329252,0.3490658504,0.5235987756,10.0050721452,20.0101442904,30.0152164356
0.2500000000,9146.0358855824,29998.9977047103,994.5661089777,0.0008911521,4.7519553833,0.0080621714,-1.4865652664,-85.2171171829,0.0491583539,2.8179948122,-0.4014278031,0.2649190782,2.3984925761,-1.3166831943,0.8689345765,7.8670556495,0.0493329739,0.0841290660,0.1330803568,2.8280048734,4.8226853134,7.6288102652,0.1745329252,0.3490658504,0.5235987756,10.0050721452,20.0101442904,30.0152164356
0.2600000000,9146.0109504309,29998.9159174132,994.5664601530,0.0008911548,4.9420336115,0.0083846553,-1.4833294452,-85.0316242446,0.0513462114,2.9434133911,-0.4328029072,0.2885553204,2.4905551749,-1.4195935356,0.9464614510,8.1690209737,0.0515429022,0.0873513124,0.1385055992,2.9546886630,5.0074000758,7.9398114176,0.1745329252,0.3490658504,0.5235987756,10.0050721452,20.0101442904,30.0152164356
0.2700000000,9145.9850374302,29998.8309227710,994.5668250999,0.0008911575,5.1321118412,0.0087071389,-1.4801044083,-84.8467495225,0.0535504261,3.0697696513,-0.4652228379,0.3133365006,2.5821678731,-1.5259309083,1.0277437220,8.4695106238,0.0537709853,0.0905615565,0.1439395349,3.0824131715,5.1914268053,8.2513109201,0.1745329252,0.3490658504,0.5235987756,10.0050721452,20.0101442904,30.0152164356
0.2800000000,9145.9581465803,29998.7427207835,994.5672038184,0.0008911604,5.3221900726,0.0090296221,-1.4768902084,-84.6624960232,0.0557709206,3.1970591428,-0.4986702214,0.3392759651,2.6733145584,-1.6356383261,1.1128251654,8.7684717517,0.0560172165,0.0937596840,0.1493822508,3.2111780164,5.3747589566,8.5633137416,0.1745329252,0.3490658504,0.5235987756,10.0050721452,20.0101442904,30.0152164356
0.2900000000,9145.9302778813,29998.6513114507,994.5675963084,0.0008911634,5.5122683055,0.0093521049,-1.4736868971,-84.4788667115,0.0580076169,3.3252774042,-0.5331273413,0.3663866887,2.7639792519,-1.7486576794,1.2017483388,9.0658519462,0.0582815887,0.0969455805,0.1548338324,3.3409827945,5.5573899675,8.8758247878,0.1745329252,0.3490658504,0.5235987756,10.0050721452,20.0101442904,30.0152164356
0.3000000000,9145.9014313331,29998.5566947726,994.5680025700,0.0008911665,5.7023465402,0.0096745874,-1.4704945253,-84.2958645103,0.0602604371,3.4544199631,-0.5685761428,0.3946812710,2.8541461124,-1.8649297484,1.2945545690,9.3615992485,0.0605640946,0.1001191313,0.1602943641,3.4718270809,5.7393132592,9.1888488995,0.1745329252,0.3490658504,0.5235987756,10.0050721452,20.0101442904,30.0152164356
0.3100000000,9145.8716069358,29998.4588707493,994.5684226033,0.0008911698,5.8924247766,0.0099970695,-1.4673131435,-84.1134923013,0.0625293030,3.5844823363,-0.6049982369,0.4241719326,2.9437994411,-1.9843942169,1.3912839389,9.6556621669,0.0628647263,0.1032802212,0.1657639293,3.6037104272,5.9205222364,9.5023908525,0.1745329252,0.3490658504,0.5235987756,10.0050721452,20.0101442904,30.0152164356
0.3200000000,9145.8408046892,29998.3578393806,994.5688564080,0.0008911731,6.0825030148,0.0103195511,-1.4641428010,-83.9317529258,0.0648141361,3.7154600306,-0.6423749041,0.4548705107,3.0329236865,-2.1069896855,1.4919752752,9.9479896919,0.0651834756,0.1064287350,0.1712426101,3.7366323604,6.1010102875,9.8164553560,0.1745329252,0.3490658504,0.5235987756,10.0050721452,20.0101442904,30.0152164356
0.3300000000,9145.8090245934,29998.2536006665,994.5693039844,0.0008911765,6.2725812549,0.0106420323,-1.4609835469,-83.7506491850,0.0671148579,3.8473485432,-0.6806870994,0.4867884563,3.1215034485,-2.2326536861,1.5966661367,10.2385313112,0.0675203338,0.1095645570,0.1767304875,3.8705923814,6.2807707844,10.1310470524,0.1745329252,0.3490658504,0.5235987756,10.0050721452,20.0101442904,30.0152164356
0.3400000000,9145.7762666485,29998.1461546069,994.5697653324,0.0008911800,6.4626594969,0.0109645131,-1.4578354292,-83.5701838404,0.0694313898,3.9801433619,-0.7199154562,0.5199368299,3.2095234830,-2.3613226965,1.7053928020,10.5272370243,0.0698752916,0.1126875713,0.1822276412,4.0055899635,6.4597970834,10.4461705157,0.1745329252,0.3490658504,0.5235987756,10.0050721452,20.0101442904,30.0152164356
0.3500000000,9145.7425308543,29998.0355012020,994.5702404519,0.0008911836,6.6527377409,0.0112869934,-1.4546984955,-83.3903596146,0.0717636527,4.1138399657,-0.7600402909,0.5543262983,3.2969687064,-2.4929321541,1.8181902585,10.8140573571,0.0722483394,0.1157976618,0.1877341499,4.1416245510,6.6380825245,10.7618302511,0.1745329252,0.3490658504,0.5235987756,10.0050721452,20.0101442904,30.0152164356
0.3600000000,9145.7078172108,29997.9216404515,994.5707293430,0.0008911874,6.8428159870,0.0116094733,-1.4515727926,-83.2111791920,0.0741115678,4.2484338254,-0.8010416072,0.5899671314,3.3838242001,-2.6274164716,1.9350921911,11.0989433763,0.0746394670,0.1188947120,0.1932500910,4.2786955578,6.8156204325,11.0780306938,0.1745329252,0.3490658504,0.5235987756,10.0050721452,20.0101442904,30.0152164356
0.3700000000,9145.6721257182,29997.8045723556,994.5712320057,0.0008911912,7.0328942351,0.0119319527,-1.4484583666,-83.0326452188,0.0764750559,4.3839204035,-0.8428991012,0.6268691987,3.4700752146,-2.7647090518,2.0561309716,11.3818467040,0.0770486635,0.1219786051,0.1987755405,4.4168023661,6.9924041162,11.3947762078,0.1745329252,0.3490658504,0.5235987756,10.0050721452,20.0101442904,30.0152164356
0.3800000000,9145.6354563762,29997.6842969141,994.5717484400,0.0008911952,7.2229724854,0.0122544316,-1.4453552631,-82.8547603043,0.0788540377,4.5202951552,-0.8855921656,0.6650419658,3.5557071743,-2.9047423031,2.1813376480,11.6627195316,0.0794759177,0.1250492243,0.2043105734,4.5559443247,7.1684268697,11.7120710857,0.1745329252,0.3490658504,0.5235987756,10.0050721452,20.0101442904,30.0152164356
0.3900000000,9145.5978091851,29997.5608141270,994.5722786459,0.0008911992,7.4130507380,0.0125769100,-1.4422635269,-82.6775270209,0.0812484338,4.6575535285,-0.9290998948,0.7044944922,3.6407056812,-3.0474476550,2.3107419345,11.9415146342,0.0819212175,0.1281064522,0.2098552632,4.6961207474,7.3436819718,12.0299195467,0.1745329252,0.3490658504,0.5235987756,10.0050721452,20.0101442904,30.0152164356
0.4000000000,9145.5591841446,29997.4341239943,994.5728226234,0.0008912034,7.6031289928,0.0128993878,-1.4391832023,-82.5009479051,0.0836581646,4.7956909647,-0.9734010896,0.7452354274,3.7250565196,-3.1927555740,2.4443722018,12.2181853841,0.0843845504,0.1311501713,0.2154096823,4.8373309121,7.5181626867,12.3483257363,0.1745329252,0.3490658504,0.5235987756,10.0050721452,20.0101442904,30.0152164356
0.4100000000,9145.5195812548,29997.3042265159,994.5733803724,0.0008912077,7.7932072499,0.0132218652,-1.4361143330,-82.3250254579,0.0860831506,4.9347028987,-1.0184742622,0.7872730085,3.8087456601,-3.3405955801,2.5822554677,12.4926857653,0.0868659030,0.1341802639,0.2209739016,4.9795740587,7.6918622640,12.6672937251,0.1745329252,0.3490658504,0.5235987756,10.0050721452,20.0101442904,30.0152164356
0.4200000000,9145.4790005158,29997.1711216918,994.5739518930,0.0008912120,7.9832855094,0.0135443419,-1.4330569619,-82.1497621454,0.0885233119,5.0745847593,-1.0642976410,0.8306150572,3.8917592641,-3.4908962626,2.7244173877,12.7649703862,0.0893652615,0.1371966121,0.2265479910,5.1228493880,7.8647739392,12.9868275076,0.1745329252,0.3490658504,0.5235987756,10.0050721452,20.0101442904,30.0152164356
0.4300000000,9145.4374419274,29997.0348095220,994.5745371852,0.0008912165,8.1733637714,0.0138668182,-1.4300111314,-81.9751603996,0.0909785688,5.2153319702,-1.1108491761,0.8752689776,3.9740836872,-3.6435852975,2.8708822466,13.0349944940,0.0918826113,0.1401990974,0.2321320186,5.2671560600,8.0368909339,13.3069310015,0.1745329252,0.3490658504,0.5235987756,10.0050721452,20.0101442904,30.0152164356
0.4400000000,9145.3949054897,29996.8952900064,994.5751362490,0.0008912211,8.3634420359,0.0141892938,-1.4269768835,-81.8012226189,0.0934488413,5.3569399493,-1.1581065438,0.9212417529,4.0557054840,-3.7985894636,3.0216729496,13.3027139874,0.0944179368,0.1431876015,0.2377260515,5.4124931925,8.2082064561,13.6276080461,0.1745329252,0.3490658504,0.5235987756,10.0050721452,20.0101442904,30.0152164356
0.4500000000,9145.3513912027,29996.7525631449,994.5757490844,0.0008912258,8.5535203030,0.0145117689,-1.4239542593,-81.6279511688,0.0959340495,5.4994041102,-1.2060471525,0.9685399436,4.1366114117,-3.9558346602,3.1768110149,13.5680854304,0.0969712220,0.1461620057,0.2433301552,5.5588598595,8.3787137004,13.9488624018,0.1745329252,0.3490658504,0.5235987756,10.0050721452,20.0101442904,30.0152164356
0.4600000000,9145.3068990663,29996.6066289376,994.5763756914,0.0008912305,8.7435985727,0.0148342434,-1.4209432996,-81.4553483826,0.0984341131,5.6427198619,-1.2546481477,1.0171696846,4.2167884343,-4.1152459243,3.3363165654,13.8310660645,0.0995424499,0.1491221909,0.2489443941,5.7062550899,8.5484058487,14.2706977487,0.1745329252,0.3490658504,0.5235987756,10.0050721452,20.0101442904,30.0152164356
0.4700000000,9145.2614290806,29996.4574873844,994.5770160699,0.0008912354,8.9336768451,0.0151567173,-1.4179440445,-81.2834165617,0.1009489522,5.7868826092,-1.3038864171,1.0671366834,4.2962237263,-4.2767474480,3.5002083214,14.0916138223,0.1021316028,0.1520680381,0.2545688307,5.8546778655,8.7172760701,14.5931176855,0.1745329252,0.3490658504,0.5235987756,10.0050721452,20.0101442904,30.0152164356
0.4800000000,9145.2149812455,29996.3051384852,994.5776702200,0.0008912404,9.1237551202,0.0154791905,-1.4149565336,-81.1121579768,0.1034784864,5.9318877533,-1.3537385965,1.1184462177,4.3749046769,-4.4402625964,3.6685035940,14.3496873401,0.1047386620,0.1549994279,0.2602035266,6.0041271201,8.8853175215,14.9161257286,0.1745329252,0.3490658504,0.5235987756,10.0050721452,20.0101442904,30.0152164356
0.4900000000,9145.1675555610,29996.1495822400,994.5783381417,0.0008912455,9.3138333981,0.0158016631,-1.4119808060,-80.9415748682,0.1060226354,6.0777306921,-1.4041810750,1.1711031335,4.4528188933,-4.6057139259,3.8412182779,14.6052459700,0.1073636081,0.1579162406,0.2658485415,6.1546017373,9.0525233480,15.2397253107,0.1745329252,0.3490658504,0.5235987756,10.0050721452,20.0101442904,30.0152164356
0.5000000000,9145.1191520270,29995.9908186487,994.5790198350,0.0008912508,9.5039116789,0.0161241350,-1.4090169003,-80.7716694465,0.1085813190,6.2244068202,-1.4551900006,1.2251118431,4.5299542050,-4.7730232020,4.0183668452,14.8582497925,0.1100064207,0.1608183566,0.2715039339,6.3061005495,9.2188866834,15.5639197800,0.1745329252,0.3490658504,0.5235987756,10.0050721452,20.0101442904,30.0152164356
0.5100000000,9145.0697706437,29995.8288477113,994.5797152999,0.0008912561,9.6939899626,0.0164466063,-1.4060648546,-80.6024438937,0.1111544567,6.3719115298,-1.5067412859,1.2804763231,4.6062986673,-4.9421114179,4.1999623398,15.1086596289,0.1126670785,0.1637056558,0.2771697607,6.4586223360,9.3844006502,15.8887123988,0.1745329252,0.3490658504,0.5235987756,10.0050721452,20.0101442904,30.0152164356
0.5200000000,9145.0194114109,29995.6636694278,994.5804245364,0.0008912615,9.8840682493,0.0167690769,-1.4031247063,-80.4339003631,0.1137419681,6.5202402106,-1.5588106138,1.3372001132,4.6818405650,-5.1128988134,4.3860163714,15.3564370531,0.1153455593,0.1665780181,0.2828460773,6.6121658218,9.5490583604,16.2141063424,0.1745329252,0.3490658504,0.5235987756,10.0050721452,20.0101442904,30.0152164356
0.5300000000,9144.9680743287,29995.4952837980,994.5811475444,0.0008912670,10.0741465391,0.0170915469,-1.4001964927,-80.2660409808,0.1163437728,6.6693882503,-1.6113734432,1.3952863141,4.7565684156,-5.2853048936,4.5765391102,15.6015444032,0.1180418399,0.1694353231,0.2885329375,6.7667296755,9.7128529159,16.5401046980,0.1745329252,0.3490658504,0.5235987756,10.0050721452,20.0101442904,30.0152164356
0.5400000000,9144.9157593970,29995.3236908220,994.5818843241,0.0008912727,10.2642248319,0.0174140161,-1.3972802502,-80.0988678458,0.1189597903,6.8193510348,-1.6644050145,1.4547375861,4.8304709737,-5.4592484477,4.7715392824,15.8439447937,0.1207558960,0.1722774504,0.2942303936,6.9223125083,9.8757774087,16.8667104637,0.1745329252,0.3490658504,0.5235987756,10.0050721452,20.0101442904,30.0152164356
0.5500000000,9144.8624666158,29995.1488904997,994.5826348753,0.0008912784,10.4543031278,0.0177364846,-1.3943760151,-79.9323830311,0.1215899400,6.9701239487,-1.7178803563,1.5155561480,4.9035372337,-5.6346475687,4.9710241655,16.0836021264,0.1234877023,0.1751042792,0.2999384964,7.0789128721,10.0378249218,17.1939265469,0.1745329252,0.3490658504,0.5235987756,10.0050721452,20.0101442904,30.0152164356
0.5600000000,9144.8081959851,29994.9708828310,994.5833991981,0.0008912842,10.6443814270,0.0180589523,-1.3914838231,-79.7665885842,0.1242341414,7.1217023755,-1.7717742905,1.5777437756,4.9757564335,-5.8114196727,5.1749995839,16.3204811020,0.1262372326,0.1779156888,0.3056572950,7.2365292581,10.1989885294,17.5217557637,0.1745329252,0.3490658504,0.5235987756,10.0050721452,20.0101442904,30.0152164356
0.5700000000,9144.7529475049,29994.7896678159,994.5841772925,0.0008912902,10.8344597295,0.0183814193,-1.3886037094,-79.6014865279,0.1268923141,7.2740816978,-1.8260614385,1.6413018005,5.0471180582,-5.9894815183,5.3834699056,16.5545472310,0.1290044594,0.1807115582,0.3113868368,7.3951600949,10.3592612972,17.8502008371,0.1745329252,0.3490658504,0.5235987756,10.0050721452,20.0101442904,30.0152164356
0.5800000000,9144.6967211751,29994.6052454544,994.5849691585,0.0008912962,11.0245380353,0.0187038856,-1.3857357090,-79.4370788609,0.1295643773,7.4272572977,-1.8807162277,1.7062311092,5.1176118429,-6.1687492267,5.5964380383,16.7857668446,0.1317893543,0.1834917663,0.3171271678,7.5548037475,10.5186362834,18.1792643964,0.1745329252,0.3490658504,0.5235987756,10.0050721452,20.0101442904,30.0152164356
0.5900000000,9144.6395169958,29994.4176157462,994.5857747961,0.0008913024,11.2146163444,0.0190263511,-1.3828798563,-79.2733675589,0.1322502506,7.5812245572,-1.9357128969,1.7725321423,5.1872277761,-6.3491383017,5.8139054267,17.0141071055,0.1345918874,0.1862561918,0.3228783321,7.7154585152,10.6771065391,18.5089489756,0.1745329252,0.3490658504,0.5235987756,10.0050721452,20.0101442904,30.0152164356
0.6000000000,9144.5813349669,29994.2267786915,994.5865942052,0.0008913087,11.4046946571,0.0193488158,-1.3800361854,-79.1103545747,0.1349498534,7.7359788582,-1.9910255030,1.8402048931,5.2559561031,-6.5305636497,6.0358720493,17.2395360182,0.1374120281,0.1890047136,0.3286403723,7.8771226304,10.8346651085,18.8392570124,0.1745329252,0.3490658504,0.5235987756,10.0050721452,20.0101442904,30.0152164356
0.6100000000,9144.5221750885,29994.0327342902,994.5874273860,0.0008913150,11.5947729732,0.0196712797,-1.3772047299,-78.9480418396,0.1376631052,7.8915155830,-2.0466279268,1.9092489076,5.3237873291,-6.7129396001,6.2623364169,17.4620224394,0.1402497443,0.1917372100,0.3344133292,8.0397942567,10.9913050299,19.1701908468,0.1745329252,0.3490658504,0.5235987756,10.0050721452,20.0101442904,30.0152164356
0.6200000000,9144.4620373604,29993.8354825421,994.5882743383,0.0008913215,11.7848512929,0.0199937428,-1.3743855232,-78.7864312636,0.1403899253,8.0478301146,-2.1024938798,1.9796632835,5.3907122219,-6.8961799257,6.4932955699,17.6815360879,0.1431050026,0.1944535595,0.3401972419,8.2034714876,11.1470193362,19.5017527203,0.1745329252,0.3490658504,0.5235987756,10.0050721452,20.0101442904,30.0152164356
0.6300000000,9144.4009217827,29993.6350234473,994.5891350623,0.0008913281,11.9749296162,0.0203162051,-1.3715785982,-78.6255247366,0.1431302334,8.2049178366,-2.1585969097,2.0514466698,5.4567218155,-7.0801978637,6.7287450770,17.8980475549,0.1459777687,0.1971536406,0.3459921477,8.3681523447,11.3018010551,19.8339447742,0.1745329252,0.3490658504,0.5235987756,10.0050721452,20.0101442904,30.0152164356
0.6400000000,9144.3388283554,29993.4313570056,994.5900095578,0.0008913348,12.1650079431,0.0206386665,-1.3687839876,-78.4653241288,0.1458839488,8.3627741339,-2.2149104074,2.1245972665,5.5218074125,-7.2649061363,6.9686790341,18.1115283128,0.1488680067,0.1998373316,0.3517980823,8.5338347766,11.4556432105,20.1667690488,0.1745329252,0.3490658504,0.5235987756,10.0050721452,20.0101442904,30.0152164356
0.6500000000,9144.2757570784,29993.2244832171,994.5908978249,0.0008913416,12.3550862739,0.0209611271,-1.3660017236,-78.3058312917,0.1486509911,8.5213943927,-2.2714076132,2.1991128242,5.5859605871,-7.4502169714,7.2130900632,18.3219507257,0.1517756795,0.2025045106,0.3576150794,8.7005166565,11.6085388222,20.5002274820,0.1745329252,0.3490658504,0.5235987756,10.0050721452,20.0101442904,30.0152164356
0.6600000000,9144.2117079517,29993.0144020816,994.5917998636,0.0008913484,12.5451646084,0.0212835868,-1.3632318384,-78.1470480586,0.1514312798,8.6807740009,-2.3280616232,2.2749906440,5.6491731883,-7.6360421242,7.4619693123,18.5292880577,0.1547007486,0.2051550558,0.3634431711,8.8681957816,11.7604809074,20.8343219080,0.1745329252,0.3490658504,0.5235987756,10.0050721452,20.0101442904,30.0152164356
0.6700000000,9144.1466809753,29992.8011135990,994.5927156738,0.0008913554,12.7352429467,0.0216060456,-1.3604743634,-77.9889762457,0.1542247345,8.8409083480,-2.3848453958,2.3522275777,5.7114373422,-7.8222928982,7.7153064549,18.7335144823,0.1576431744,0.2077888455,0.3692823874,9.0368698706,11.9114624809,21.1690540564,0.1745329252,0.3490658504,0.5235987756,10.0050721452,20.0101442904,30.0152164356
0.6800000000,9144.0806761492,29992.5846177694,994.5936452557,0.0008913626,12.9253212890,0.0219285036,-1.3577293302,-77.8316176526,0.1570312749,9.0017928258,-2.4417317581,2.4308200276,5.7727454547,-8.0088801666,7.9730896906,18.9346050913,0.1606029156,0.2104057577,0.3751327568,9.2065365631,12.0614765557,21.5044255507,0.1745329252,0.3490658504,0.5235987756,10.0050721452,20.0101442904,30.0152164356
0.6900000000,9144.0136934734,29992.3649145926,994.5945886092,0.0008913698,13.1153996353,0.0222509606,-1.3549967698,-77.6749740631,0.1598508204,9.1634228283,-2.4986934127,2.5107639468,5.8330902144,-8.1957143937,8.2353057455,19.1325359031,0.1635799296,0.2130056705,0.3809943057,9.3771934173,12.2105161442,21.8404379072,0.1745329252,0.3490658504,0.5235987756,10.0050721452,20.0101442904,30.0152164356
0.7000000000,9143.9457329478,29992.1420040686,994.5955457342,0.0008913771,13.3054779856,0.0225734168,-1.3522767131,-77.5190472462,0.1626832910,9.3257937519,-2.5557029442,2.5920548395,5.8924645949,-8.3827056568,8.5019398735,19.3272838712,0.1665741724,0.2155884621,0.3868670586,9.5488379087,12.3585742583,22.1770925340,0.1745329252,0.3490658504,0.5235987756,10.0050721452,20.0101442904,30.0152164356
0.7100000000,9143.8767945724,29991.9158861974,994.5965166309,0.0008913845,13.4955563399,0.0228958720,-1.3495691907,-77.3638389566,0.1655286063,9.4889009959,-2.6127328256,2.6746877614,5.9508618573,-8.5697636680,8.7729758574,19.5188268921,0.1695855985,0.2181540104,0.3927510383,9.7214674289,12.5056439107,22.5143907295,0.1745329252,0.3490658504,0.5235987756,10.0050721452,20.0101442904,30.0152164356
0.7200000000,9143.8068783472,29991.6865609787,994.5975012991,0.0008913920,13.6856346984,0.0232183262,-1.3468742330,-77.2093509356,0.1683866860,9.6527399623,-2.6697554255,2.7586573204,6.0082755528,-8.7567977956,9.0483960109,19.7071438133,0.1726141608,0.2207021938,0.3986462653,9.8950792835,12.6517181152,22.8523336812,0.1745329252,0.3490658504,0.5235987756,10.0050721452,20.0101442904,30.0152164356
0.7300000000,9143.7359842721,29991.4540284126,994.5984997389,0.0008913997,13.8757130612,0.0235407795,-1.3441918701,-77.0555849121,0.1712574501,9.8173060563,-2.7267430142,2.8439576771,6.0646995248,-8.9437170867,9.3281811809,19.8922144412,0.1756598109,0.2232328903,0.4045527586,10.0696706911,12.7967898877,23.1909224650,0.1745329252,0.3490658504,0.5235987756,10.0050721452,20.0101442904,30.0152164356
0.7400000000,9143.6641123473,29991.2182884991,994.5995119503,0.0008914074,14.0657914281,0.0238632318,-1.3415221321,-76.9025426030,0.1741408184,9.9825946865,-2.7836677710,2.9305825456,6.1201279110,-9.1304302889,9.6123107494,20.0740195480,0.1787224987,0.2257459781,0.4104705348,10.2452387813,12.9408522472,23.5301580434,0.1745329252,0.3490658504,0.5235987756,10.0050721452,20.0101442904,30.0152164356
0.7500000000,9143.5912625725,29990.9793412379,994.6005379333,0.0008914152,14.2558697994,0.0241856832,-1.3388650486,-76.7502257141,0.1770367110,10.1486012649,-2.8405017904,3.0185251942,6.1745551461,-9.3168458726,9.9007626371,20.2525408792,0.1818021726,0.2282413355,0.4163996087,10.4217805939,13.0838982159,23.8700412648,0.1745329252,0.3490658504,0.5235987756,10.0050721452,20.0101442904,30.0152164356
0.7600000000,9143.5174349479,29990.7371866291,994.6015776879,0.0008914232,14.4459481751,0.0245081335,-1.3362206492,-76.5986359414,0.1799450477,10.3153212070,-2.8972170895,3.1077784470,6.2279759635,-9.5028720535,10.1935133061,20.4277611604,0.1848987792,0.2307188410,0.4223399933,10.5992930766,13.2259208209,24.2105728619,0.1745329252,0.3490658504,0.5235987756,10.0050721452,20.0101442904,30.0152164356
0.7700000000,9143.4426294733,29990.4918246726,994.6026312141,0.0008914312,14.6360265553,0.0248305829,-1.3335889634,-76.4477749710,0.1828657488,10.4827499324,-2.9537856142,3.1983346842,6.2803853977,-9.6884168146,10.4905377641,20.5996641043,0.1880122638,0.2331783729,0.4282916991,10.7777730841,13.3669130945,24.5517534512,0.1745329252,0.3490658504,0.5235987756,10.0050721452,20.0101442904,30.0152164356
0.7800000000,9143.3668461489,29990.2432553683,994.6036985119,0.0008914394,14.8261049399,0.0251530312,-1.3309700204,-76.2976444808,0.1857987344,10.6508828646,-3.0101792466,3.2901858438,6.3317787856,-9.8733879290,10.7918095677,20.7682344167,0.1911425698,0.2356198098,0.4342547349,10.9572173765,13.5068680749,24.8935835311,0.1745329252,0.3490658504,0.5235987756,10.0050721452,20.0101442904,30.0152164356
0.7900000000,9143.2900849744,29989.9914787161,994.6047795813,0.0008914477,15.0161833290,0.0254754784,-1.3283638493,-76.1482461407,0.1887439247,10.8197154311,-3.0663698117,3.3833234231,6.3821517692,-10.0576929824,11.0973008277,20.9334578031,0.1942896390,0.2380430303,0.4402291074,11.1376226180,13.6457788077,25.2360634815,0.1745329252,0.3490658504,0.5235987756,10.0050721452,20.0101442904,30.0152164356
0.8000000000,9143.2123459500,29989.7364947159,994.6058744222,0.0008914560,15.2062617228,0.0257979247,-1.3257704793,-75.9995816138,0.1917012401,10.9892430638,-3.1223290840,3.4777384795,6.4315002970,-10.2412393956,11.4069822128,21.0953209742,0.1974534115,0.2404479134,0.4462148210,11.3189853750,13.7836383463,25.5791935621,0.1745329252,0.3490658504,0.5235987756,10.0050721452,20.0101442904,30.0152164356
0.8100000000,9143.1336290755,29989.4783033678,994.6069830348,0.0008914645,15.3963401213,0.0261203698,-1.3231899390,-75.8516525569,0.1946706009,11.1594611993,-3.1780287949,3.5734216328,6.4798206257,-10.4239344473,11.7208229556,21.2538116524,0.2006338258,0.2428343379,0.4522118782,11.5013021153,13.9204397528,25.9229739115,0.1745329252,0.3490658504,0.5235987756,10.0050721452,20.0101442904,30.0152164356
0.8200000000,9143.0539343511,29989.2169046715,994.6081054190,0.0008914731,15.5864185245,0.0264428139,-1.3206222575,-75.7044606215,0.1976519276,11.3303652783,-3.2334406393,3.6703630663,6.5271093221,-10.6056852970,12.0387908576,21.4089185764,0.2038308184,0.2452021831,0.4582202793,11.6845692064,14.0561760992,26.2674045464,0.1745329252,0.3490658504,0.5235987756,10.0050721452,20.0101442904,30.0152164356
0.8300000000,9142.9732617765,29988.9522986270,994.6092415747,0.0008914818,15.7764969325,0.0267652569,-1.3180674634,-75.5580074549,0.2006451408,11.5019507467,-3.2885362828,3.7685525290,6.5733632644,-10.7863990075,12.3608522951,21.5606315072,0.2070443242,0.2475513282,0.4642400224,11.8687829140,14.1908404680,26.6124853601,0.1745329252,0.3490658504,0.5235987756,10.0050721452,20.0101442904,30.0152164356
0.8400000000,9142.8916113519,29988.6844852343,994.6103915021,0.0008914906,15.9665753453,0.0270876988,-1.3155255853,-75.4122947002,0.2036501611,11.6742130550,-3.3432873683,3.8679793371,6.6185796440,-10.9659825680,12.6869722257,21.7089412324,0.2102742762,0.2498816527,0.4702711035,12.0539394010,14.3244259536,26.9582161217,0.1745329252,0.3490658504,0.5235987756,10.0050721452,20.0101442904,30.0152164356
0.8500000000,9142.8089830772,29988.4134644932,994.6115552010,0.0008914995,16.1566537630,0.0274101396,-1.3129966520,-75.2673239983,0.2066669092,11.8471476586,-3.3976655235,3.9686323764,6.6627559669,-11.1443429172,13.0171141944,21.8538395714,0.2135206058,0.2521930366,0.4763135163,12.2400347259,14.4569256629,27.3045964751,0.1745329252,0.3490658504,0.5235987756,10.0050721452,20.0101442904,30.0152164356
0.8600000000,9142.7253769523,29988.1392364037,994.6127326715,0.0008915085,16.3467321857,0.0277325792,-1.3104806919,-75.1230969876,0.2096953059,12.0207500182,-3.4516423677,4.0705001040,6.7058900548,-11.3213869659,13.3512403412,21.9953193798,0.2167832422,0.2544853596,0.4823672525,12.4270648417,14.5883327162,27.6516259377,0.1745329252,0.3490658504,0.5235987756,10.0050721452,20.0101442904,30.0152164356
0.8700000000,9142.6407929773,29987.8618009656,994.6139239137,0.0008915176,16.5368106134,0.0280550177,-1.3079777337,-74.9796153056,0.2127352721,12.1950155996,-3.5051895184,4.1735705511,6.7479800468,-11.4970216203,13.6893114077,22.1333745535,0.2200621131,0.2567585021,0.4884323014,12.6150255944,14.7186402485,27.9993038997,0.1745329252,0.3490658504,0.5235987756,10.0050721452,20.0101442904,30.0152164356
0.8800000000,9142.5552311521,29987.5811581790,994.6151289274,0.0008915268,16.7268890462,0.0283774550,-1.3054878058,-74.8368805895,0.2157867289,12.3699398740,-3.5582785991,4.2778313248,6.7890244002,-11.6711538051,14.0312867453,22.2680000326,0.2233571441,0.2590123446,0.4945086501,12.8039127220,14.8478414105,28.3476296232,0.1745329252,0.3490658504,0.5235987756,10.0050721452,20.0101442904,30.0152164356
0.8900000000,9142.4686914767,29987.2973080436,994.6163477127,0.0008915361,16.9169674841,0.0286998912,-1.3030109370,-74.6948944771,0.2188495973,12.5455183177,-3.6108812457,4.3832696107,6.8290218919,-11.8436904861,14.3771243230,22.3991918054,0.2266682590,0.2612467679,0.5005962835,12.9937218529,14.9759293694,28.6966022408,0.1745329252,0.3490658504,0.5235987756,10.0050721452,20.0101442904,30.0152164356
0.9000000000,9142.3811739511,29987.0102505595,994.6175802696,0.0008915455,17.1070459273,0.0290223262,-1.3005471557,-74.5536586075,0.2219237985,12.7217464128,-3.6629691140,4.4898721755,6.8679716194,-12.0145386939,14.7267807358,22.5269469116,0.2299953795,0.2634616531,0.5066951843,13.1844485051,15.1028973101,29.0462207552,0.1745329252,0.3490658504,0.5235987756,10.0050721452,20.0101442904,30.0152164356
0.9100000000,9142.2926785752,29986.7199857265,994.6188265982,0.0008915550,17.2971243756,0.0293447600,-1.2980964906,-74.4131746221,0.2250092538,12.8986196469,-3.7145138863,4.5976253700,6.9058730017,-12.1836055470,15.0802112134,22.6512634454,0.2333384255,0.2656568816,0.5128053327,13.3760880847,15.2287384363,29.3964840379,0.1745329252,0.3490658504,0.5235987756,10.0050721452,20.0101442904,30.0152164356
0.9200000000,9142.2032053490,29986.4265135446,994.6200866983,0.0008915647,17.4872028293,0.0296671926,-1.2956589704,-74.2734441655,0.2281058846,13.0761335131,-3.7654872788,4.7065151310,6.9427257802,-12.3507982743,15.4373696297,22.7721405590,0.2366973149,0.2678323353,0.5189267067,13.5686358852,15.3534459713,29.7473908286,0.1745329252,0.3490658504,0.5235987756,10.0050721452,20.0101442904,30.0152164356
0.9300000000,9142.1127542724,29986.1298340136,994.6213605700,0.0008915744,17.6772812884,0.0299896239,-1.2932346239,-74.1344688861,0.2312136123,13.2542835104,-3.8158610485,4.8165269852,6.9785300196,-12.5160242391,15.7982085115,22.8895784644,0.2400719636,0.2699878962,0.5250592820,13.7620870856,15.4770131595,30.0989397342,0.1745329252,0.3490658504,0.5235987756,10.0050721452,20.0101442904,30.0152164356
0.9400000000,9142.0213253456,29985.8299471335,994.6226482133,0.0008915842,17.8673597529,0.0303120541,-1.2908234799,-73.9962504375,0.2343323586,13.4330651435,-3.8656070004,4.9276460515,7.0132861087,-12.6791909614,16.1626790490,23.0035784366,0.2434622855,0.2721234470,0.5312030321,13.9564367502,15.5994332672,30.4511292281,0.1745329252,0.3490658504,0.5235987756,10.0050721452,20.0101442904,30.0152164356
0.9500000000,9141.9289185683,29985.5268529041,994.6239496282,0.0008915942,18.0574382229,0.0306344829,-1.2884255672,-73.8587904787,0.2374620451,13.6124739230,-3.9146969945,5.0398570444,7.0469947608,-12.8402061419,16.5307311056,23.1141428154,0.2468681925,0.2742388705,0.5373579279,14.1516798270,15.7206995838,30.8039576494,0.1745329252,0.3490658504,0.5235987756,10.0050721452,20.0101442904,30.0152164356
0.9600000000,9141.8355339407,29985.2205513254,994.6252648147,0.0008916042,18.2475166985,0.0309569105,-1.2860409151,-73.7220906756,0.2406025936,13.7925053654,-3.9631029526,5.1531442770,7.0796570144,-12.9989776844,16.9023132285,23.2212750072,0.2502895944,0.2763340502,0.5435239381,14.3478111466,15.8408054230,31.1574232017,0.1745329252,0.3490658504,0.5235987756,10.0050721452,20.0101442904,30.0152164356
0.9700000000,9141.7411714626,29984.9110423973,994.6265937728,0.0008916144,18.4375951796,0.0312793369,-1.2836695527,-73.5861527014,0.2437539260,13.9731549931,-4.0107968657,5.2674916645,7.1112742338,-13.1554137195,17.2773726594,23.3249794868,0.2537263990,0.2784088697,0.5497010290,14.5448254218,15.9597441238,31.5115239534,0.1745329252,0.3490658504,0.5235987756,10.0050721452,20.0101442904,30.0152164356
0.9800000000,9141.6458311341,29984.5983261197,994.6279365025,0.0008916247,18.6276736664,0.0316017619,-1.2813115093,-73.4509782377,0.2469159643,14.1544183344,-4.0577508010,5.3828827275,7.1418481093,-13.3094226273,17.6558553461,23.4252617986,0.2571785120,0.2804632135,0.5558891645,14.7427172460,16.0775090517,31.8662578359,0.1745329252,0.3490658504,0.5235987756,10.0050721452,20.0101442904,30.0152164356
0.9900000000,9141.5495129550,29984.2824024925,994.6292930038,0.0008916350,18.8177521589,0.0319241857,-1.2789668144,-73.3165689755,0.2500886306,14.3362909240,-4.1039369087,5.4993005956,7.1713806579,-13.4609130606,18.0377059534,23.5221285579,0.2606458368,0.2824969661,0.5620883061,14.9414810926,16.1940936000,32.2216226436,0.1745329252,0.3490658504,0.5235987756,10.0050721452,20.0101442904,30.0152164356
1.0000000000,9141.4522169255,29983.9632715156,994.6306632767,0.0008916455,19.0078306573,0.0322466081,-1.2766354976,-73.1829266160,0.2532718470,14.5187683022,-4.1493274294,5.6167280108,7.1998742231,-13.6097939683,18.4228678756,23.6155874516,0.2641282751,0.2845100130,0.5682984130,15.1411113142,16.3094911908,32.5776160331,0.1745329252,0.3490658504,0.5235987756,10.0050721452,20.0101442904,30.0152164356
1.0100000000,9141.3539430454,29983.6409331889,994.6320473213,0.0008916561,19.1979091614,0.0325690292,-1.2743175890,-73.0500528713,0.2564655361,14.7018460157,-4.1938947005,5.7351473318,7.2273314752,-13.7559746177,18.8112832481,23.7056472387,0.2676257262,0.2865022398,0.5745194419,15.3416021415,16.4236952765,32.9342355226,0.1745329252,0.3490658504,0.5235987756,10.0050721452,20.0101442904,30.0152164356
1.0200000000,9141.2546913147,29983.3153875123,994.6334451374,0.0008916668,19.3879876715,0.0328914489,-1.2720131185,-72.9179494656,0.2596696200,14.8855196173,-4.2376111641,5.8545405368,7.2537554118,-13.8993646182,19.2028929606,23.7923177507,0.2711380874,0.2884735329,0.5807513470,15.5429476827,16.5366993404,33.2914784915,0.1745329252,0.3490658504,0.5235987756,10.0050721452,20.0101442904,30.0152164356
1.0300000000,9141.1544617334,29982.9866344856,994.6348567251,0.0008916776,19.5780661875,0.0332138673,-1.2697221164,-72.7866181360,0.2628840214,15.0697846656,-4.2804493731,5.9748892284,7.2791493572,-14.0398739439,19.5976366692,23.8756098915,0.2746652535,0.2904237792,0.5869940802,15.7451419227,16.6484968986,33.6493421796,0.1745329252,0.3490658504,0.5235987756,10.0050721452,20.0101442904,30.0152164356
1.0400000000,9141.0532543015,29982.6546741089,994.6362820844,0.0008916885,19.7681447095,0.0335362844,-1.2674446133,-72.6560606334,0.2661086629,15.2546367258,-4.3223819989,6.0961746373,7.3035169626,-14.1774129564,19.9954528104,23.9555356372,0.2782071177,0.2923528662,0.5932475910,15.9481787224,16.7590815006,34.0078236870,0.1745329252,0.3490658504,0.5235987756,10.0050721452,20.0101442904,30.0152164356
1.0500000000,9140.9510690189,29982.3195063820,994.6377212153,0.0008916995,19.9582232376,0.0338587000,-1.2651806400,-72.5262787233,0.2693434672,15.4400713688,-4.3633818378,6.2183776262,7.3268622061,-14.3118924279,20.3962786138,24.0321080359,0.2817635706,0.2942606819,0.5995118262,16.1520518179,16.8684467313,34.3669199733,0.1745329252,0.3490658504,0.5235987756,10.0050721452,20.0101442904,30.0152164356
1.0600000000,9140.8479058856,29981.9811313048,994.6391741178,0.0008917106,20.1483017718,0.0341811142,-1.2629302275,-72.3972741871,0.2725883572,15.6260841719,-4.4034218182,6.3414786941,7.3491893922,-14.4432235637,20.8000501167,24.1053412064,0.2853345008,0.2961471150,0.6057867304,16.3567548202,16.9765862114,34.7266278576,0.1745329252,0.3490658504,0.5235987756,10.0050721452,20.0101442904,30.0152164356
1.0700000000,9140.7437649016,29981.6395488771,994.6406407920,0.0008917218,20.3383803122,0.0345035271,-1.2606934072,-72.2690488225,0.2758432559,15.8126707184,-4.4424750076,6.4654579810,7.3705031517,-14.5713180250,21.2067021777,24.1752503375,0.2889197945,0.2980120550,0.6120722456,16.5622812141,17.0834935992,35.0869440179,0.1745329252,0.3490658504,0.5235987756,10.0050721452,20.0101442904,30.0152164356
1.0800000000,9140.6386460668,29981.2947590989,994.6421212377,0.0008917331,20.5284588589,0.0348259385,-1.2584702109,-72.1416044450,0.2791080862,15.9998265978,-4.4805146195,6.5902952718,7.3908084410,-14.6960879519,21.6161684915,24.2418516865,0.2925193360,0.2998553919,0.6183683115,16.7686243583,17.1891625917,35.4478649909,0.1745329252,0.3490658504,0.5235987756,10.0050721452,20.0101442904,30.0152164356
1.0900000000,9140.5325493811,29980.9467619702,994.6436154550,0.0008917445,20.7185374119,0.0351483485,-1.2562606704,-72.0149428883,0.2823827714,16.1875474055,-4.5175140199,6.7159700010,7.4101105420,-14.8174459851,22.0283816034,24.3051625779,0.2961330072,0.3016770164,0.6246748651,16.9757774844,17.2935869259,35.8093871718,0.1745329252,0.3490658504,0.5235987756,10.0050721452,20.0101442904,30.0152164356
1.1000000000,9140.4254748447,29980.5955574906,994.6451234440,0.0008917560,20.9086159712,0.0354707570,-1.2540648181,-71.8890660058,0.2856672347,16.3758287430,-4.5534467345,6.8424612575,7.4284150613,-14.9353052893,22.4432729248,24.3652014011,0.2997606878,0.3034768200,0.6309918411,17.1837336967,17.3967603800,36.1715068139,0.1745329252,0.3490658504,0.5235987756,10.0050721452,20.0101442904,30.0152164356
1.1100000000,9140.3174224574,29980.2411456603,994.6466452045,0.0008917677,21.0986945370,0.0357931641,-1.2518826867,-71.7639756710,0.2889613996,16.5646662179,-4.5882864558,6.9697477891,7.4457279295,-15.0495795749,22.8607727481,24.4219876087,0.3034022553,0.3052546949,0.6373191716,17.3924859717,17.4986767749,36.5342200289,0.1745329252,0.3490658504,0.5235987756,10.0050721452,20.0101442904,30.0152164356
1.1200000000,9140.2083922192,29979.8835264790,994.6481807367,0.0008917794,21.2887731092,0.0361155697,-1.2497143093,-71.6396737788,0.2922651894,16.7540554438,-4.6220070490,7.0978080070,7.4620554006,-15.1601831208,23.2808102630,24.4755417141,0.3070575849,0.3070105340,0.6436567864,17.6020271580,17.5993299750,36.8975227861,0.1745329252,0.3490658504,0.5235987756,10.0050721452,20.0101442904,30.0152164356
1.1300000000,9140.0983841301,29979.5226999466,994.6497300404,0.0008917913,21.4788516880,0.0364379738,-1.2475597192,-71.5161622466,0.2955785278,16.9439920401,-4.6545825598,7.2266199914,7.4774040513,-15.2670307962,23.7033135718,24.5258852884,0.3107265496,0.3087442312,0.6500046126,17.8123499757,17.6987138903,37.2614109131,0.1745329252,0.3490658504,0.5235987756,10.0050721452,20.0101442904,30.0152164356
1.1400000000,9139.9873981900,29979.1586660631,994.6512931158,0.0008918032,21.6689302734,0.0367603764,-1.2454189504,-71.3934430147,0.2989013385,17.1344716321,-4.6859872204,7.3561614959,7.4917807799,-15.3700380829,24.1282097066,24.5730409580,0.3144090202,0.3104556810,0.6563625750,18.0234470165,17.7968224769,37.6258800955,0.1745329252,0.3490658504,0.5235987756,10.0050721452,20.0101442904,30.0152164356
1.1500000000,9139.8754343989,29978.7914248283,994.6528699628,0.0008918153,21.8590088654,0.0370827775,-1.2432920371,-71.2715180479,0.3022335452,17.3254898510,-4.7161954565,7.4864099527,7.5051928053,-15.4691210973,24.5554246449,24.6170324012,0.3181048652,0.3121447788,0.6627305958,18.2353107432,17.8936497387,37.9909258766,0.1745329252,0.3490658504,0.5235987756,10.0050721452,20.0101442904,30.0152164356
1.1600000000,9139.7624927567,29978.4209762421,994.6544605814,0.0008918274,22.0490874642,0.0374051770,-1.2411790140,-71.1503893362,0.3055750718,17.5170423337,-4.7451818939,7.6173424778,7.5176476661,-15.5641966120,24.9848833273,24.6578843447,0.3218139509,0.3138114208,0.6691085949,18.4479334899,17.9891897289,38.3565436580,0.1745329252,0.3490658504,0.5235987756,10.0050721452,20.0101442904,30.0152164356
1.1700000000,9139.6485732635,29978.0473203044,994.6560649715,0.0008918397,22.2391660697,0.0377275751,-1.2390799163,-71.0300588957,0.3089258424,17.7091247228,-4.7729213653,7.7489358763,7.5291532195,-15.6551820781,25.4165096742,24.6956225600,0.3255361413,0.3154555043,0.6754964895,18.6613074617,18.0834365508,38.7227286998,0.1745329252,0.3490658504,0.5235987756,10.0050721452,20.0101442904,30.0152164356
1.1800000000,9139.5336759192,29977.6704570151,994.6576831333,0.0008918520,22.4292446820,0.0380499715,-1.2369947797,-70.9105287699,0.3122857810,17.9017326666,-4.7993889165,7.8811666474,7.5397176400,-15.7419956461,25.8502266035,24.7302738593,0.3292712982,0.3170769272,0.6818941945,18.8754247348,18.1763843595,39.0894761203,0.1745329252,0.3490658504,0.5235987756,10.0050721452,20.0101442904,30.0152164356
1.1900000000,9139.4178007238,29977.2903863741,994.6593150668,0.0008918645,22.6193233013,0.0383723664,-1.2349236402,-70.7918010304,0.3156548117,18.0948618188,-4.8245598135,8.0140109903,7.5493494181,-15.8245561882,26.2859560483,24.7618660913,0.3330192810,0.3186755884,0.6883016223,19.0902772565,18.2680273632,39.4567808968,0.1745329252,0.3490658504,0.5235987756,10.0050721452,20.0101442904,30.0152164356
1.2000000000,9139.3009476772,29976.9071083812,994.6609607718,0.0008918771,22.8094019275,0.0386947597,-1.2328665346,-70.6738777781,0.3190328590,18.2885078387,-4.8484095485,8.1474448094,7.5580573588,-15.9027833190,26.7236189748,24.7904281367,0.3367799472,0.3202513880,0.6947186828,19.3058568455,18.3583598245,39.8246378656,0.1745329252,0.3490658504,0.5235987756,10.0050721452,20.0101442904,30.0152164356
1.2100000000,9139.1831167794,29976.5206230363,994.6626202484,0.0008918898,22.9994805607,0.0390171514,-1.2308235000,-70.5567611442,0.3224198470,18.4826663907,-4.8709138467,8.2814437197,7.5658505804,-15.9765974170,27.1631354006,24.8159899037,0.3405531517,0.3218042269,0.7011452834,19.5221551917,18.4473760615,40.1930417227,0.1745329252,0.3490658504,0.5235987756,10.0050721452,20.0101442904,30.0152164356
1.2200000000,9139.0643080303,29976.1309303393,994.6642934966,0.0008919026,23.1895592010,0.0393395416,-1.2287945741,-70.4404532912,0.3258157004,18.6773331448,-4.8920486725,8.4159830529,7.5727385129,-16.0459196459,27.6044244134,24.8385823222,0.3443387473,0.3233340067,0.7075813292,19.7391638568,18.5350704494,40.5619870239,0.1745329252,0.3490658504,0.5235987756,10.0050721452,20.0101442904,30.0152164356
1.2300000000,9138.9445214299,29975.7380302901,994.6659805165,0.0008919155,23.3796378484,0.0396619300,-1.2267797952,-70.3249564138,0.3292203436,18.8725037759,-4.9117902363,8.5510378627,7.5787308962,-16.1106719750,28.0474041898,24.8582373395,0.3481365846,0.3248406306,0.7140267228,19.9568742744,18.6214374218,40.9314681856,0.1745329252,0.3490658504,0.5235987756,10.0050721452,20.0101442904,30.0152164356
1.2400000000,9138.8237569782,29975.3419228886,994.6676813080,0.0008919285,23.5697165029,0.0399843169,-1.2247792022,-70.2102727404,0.3326337014,19.0681739642,-4.9301150002,8.6865829311,7.5838377786,-16.1707772006,28.4919920141,24.8749879139,0.3519465119,0.3263240023,0.7204813644,20.1752777505,18.7064714720,41.3014794851,0.1745329252,0.3490658504,0.5235987756,10.0050721452,20.0101442904,30.0152164356
1.2500000000,9138.7020146752,29974.9426081347,994.6693958710,0.0008919416,23.7597951648,0.0403067021,-1.2227928346,-70.0964045336,0.3360556983,19.2643393945,-4.9469996848,8.8225927738,7.5880695150,-16.2261589662,28.9381042979,24.8888680093,0.3557683753,0.3277840270,0.7269451516,20.3943654637,18.7901671541,41.6720150615,0.1745329252,0.3490658504,0.5235987756,10.0050721452,20.0101442904,30.0152164356
1.2600000000,9138.5792945208,29974.5400860282,994.6711242057,0.0008919548,23.9498738339,0.0406290856,-1.2208207325,-69.9833540915,0.3394862593,19.4609957567,-4.9624212753,8.9590416463,7.5914367650,-16.2767417830,29.3856565998,24.8999125893,0.3596020188,0.3292206107,0.7334179800,20.6141284659,18.8725190847,42.0430689164,0.1745329252,0.3490658504,0.5235987756,10.0050721452,20.0101442904,30.0152164356
1.2700000000,9138.4555965149,29974.1343565689,994.6728663120,0.0008919681,24.1399525104,0.0409514675,-1.2188629365,-69.8711237491,0.3429253092,19.6581387454,-4.9763570276,9.0959035502,7.5939504909,-16.3224510504,29.8345636447,24.9081576103,0.3634472840,0.3306336606,0.7398997424,20.8345576825,18.9535219439,42.4146349142,0.1745329252,0.3490658504,0.5235987756,10.0050721452,20.0101442904,30.0152164356
1.2800000000,9138.3309206576,29973.7254197569,994.6746221899,0.0008919815,24.3300311943,0.0412738477,-1.2169194881,-69.7597158787,0.3463727730,19.8557640594,-4.9887844744,9.2331522392,7.5956219559,-16.3632130761,30.2847393444,24.9136400153,0.3673040105,0.3320230850,0.7463903294,21.0556439137,19.0331704771,42.7867067836,0.1745329252,0.3490658504,0.5235987756,10.0050721452,20.0101442904,30.0152164356
1.2900000000,9138.2052669487,29973.3132755919,994.6763918395,0.0008919950,24.5201098856,0.0415962262,-1.2149904293,-69.6491328916,0.3498285758,20.0538674024,-4.9996814316,9.3707612249,7.5964627217,-16.3989550957,30.7360968178,24.9163977271,0.3711720356,0.3333887934,0.7528896294,21.2773778343,19.1114594955,43.1592781178,0.1745329252,0.3490658504,0.5235987756,10.0050721452,20.0101442904,30.0152164356
1.3000000000,9138.0786353884,29972.8979240738,994.6781752606,0.0008920087,24.7101885845,0.0419186029,-1.2130758029,-69.5393772390,0.3532926426,20.2524444821,-5.0090260040,9.5087037839,7.5964846467,-16.4296052930,31.1885484111,24.9164696411,0.3750511944,0.3347306965,0.7593975281,21.4997499950,19.1883838781,43.5323423761,0.1745329252,0.3490658504,0.5235987756,10.0050721452,20.0101442904,30.0152164356
1.3100000000,9137.9510259764,29972.4793652025,994.6799724534,0.0008920224,24.9002672910,0.0422409780,-1.2111756524,-69.4304514131,0.3567648987,20.4514910104,-5.0167965912,9.6469529631,7.5956998835,-16.4550928191,31.6420057191,24.9138956179,0.3789413199,0.3360487062,0.7659139092,21.7227508232,19.2639385729,43.9058928842,0.1745329252,0.3490658504,0.5235987756,10.0050721452,20.0101442904,30.0152164356
1.3200000000,9137.8224387128,29972.0575989779,994.6817834178,0.0008920363,25.0903460052,0.0425633513,-1.2092900220,-69.3223579481,0.3602452694,20.6510027031,-5.0229718939,9.7854815871,7.5941208767,-16.4753478121,32.0963796057,24.9087164755,0.3828422431,0.3373427355,0.7724386539,21.9463706236,19.3381185979,44.2799228361,0.1745329252,0.3490658504,0.5235987756,10.0050721452,20.0101442904,30.0152164356
1.3300000000,9137.6928735975,29971.6326253999,994.6836081538,0.0008920502,25.2804247270,0.0428857228,-1.2074189566,-69.2150994217,0.3637336799,20.8509752798,-5.0275309195,9.9242622638,7.5917603604,-16.4903014160,32.5515802254,24.9009739821,0.3867537927,0.3386126989,0.7789716412,22.1705995791,19.4109190427,44.6544252943,0.1745329252,0.3490658504,0.5235987756,10.0050721452,20.0101442904,30.0152164356
1.3400000000,9137.5623306306,29971.2044444682,994.6854466614,0.0008920643,25.4705034566,0.0432080926,-1.2055625020,-69.1086784557,0.3672300556,21.0514044639,-5.0304529878,10.0632673917,7.5886313559,-16.4998858001,33.0075170447,24.8907108474,0.3906757952,0.3398585118,0.7855127479,22.3954277522,19.4823350696,45.0293931918,0.1745329252,0.3490658504,0.5235987756,10.0050721452,20.0101442904,30.0152164356
1.3500000000,9137.4308098118,29970.7730561829,994.6872989406,0.0008920784,25.6605821941,0.0435304606,-1.2037207046,-69.0030977179,0.3707343221,21.2522859821,-5.0317177370,10.2024691658,7.5847471690,-16.5040341772,33.4640988638,24.8779707144,0.3946080754,0.3410800912,0.7920618484,22.6208450857,19.5523619148,45.4048193329,0.1745329252,0.3490658504,0.5235987756,10.0050721452,20.0101442904,30.0152164356
1.3600000000,9137.2983111413,29970.3384605436,994.6891649915,0.0008920927,25.8506609394,0.0438528267,-1.2018936120,-68.8983599226,0.3742464048,21.4536155645,-5.0313051289,10.3418395848,7.5801213874,-16.5026808228,33.9212338380,24.8627981508,0.3985504556,0.3422773553,0.7986188149,22.8468414041,19.6209948901,45.7806963947,0.1745329252,0.3490658504,0.5235987756,10.0050721452,20.0101442904,30.0152164356
1.3700000000,9137.1648346190,29969.9006575504,994.6910448139,0.0008921071,26.0407396927,0.0441751911,-1.2000812722,-68.7944678320,0.3777662294,21.6553889443,-5.0291954552,10.4813504575,7.5747678782,-16.4957610931,34.3788295005,24.8452386404,0.4025027563,0.3434502237,0.8051835175,23.0734064143,19.6882293834,46.1570169286,0.1745329252,0.3490658504,0.5235987756,10.0050721452,20.0101442904,30.0152164356
1.3800000000,9137.0303802448,29969.4596472031,994.6929384080,0.0008921215,26.2308184539,0.0444975537,-1.1982837343,-68.6914242577,0.3812937213,21.8576018574,-5.0253693424,10.6209734098,7.5687007847,-16.4832114430,34.8367927840,24.8253385737,0.4064647960,0.3445986172,0.8117558242,23.3005297076,19.7540608609,46.5337733615,0.1745329252,0.3490658504,0.5235987756,10.0050721452,20.0101442904,30.0152164356
1.3900000000,9136.8949480187,29969.0154295015,994.6948457737,0.0008921361,26.4208972233,0.0448199144,-1.1965010482,-68.5892320614,0.3848288063,22.0602500427,-5.0198077574,10.7606798913,7.5619345240,-16.4649694444,35.2950300436,24.8031452388,0.4104363910,0.3457224582,0.8183356006,23.5282007603,19.8184848673,46.9109579973,0.1745329252,0.3490658504,0.5235987756,10.0050721452,20.0101442904,30.0152164356
1.4000000000,9136.7585379407,29968.5680044455,994.6967669111,0.0008921508,26.6109760007,0.0451422733,-1.1947332647,-68.4878941565,0.3883714101,22.2633292414,-5.0124920133,10.9004411826,7.5544837841,-16.4409738037,35.7534470788,24.7787068117,0.4144173559,0.3468216704,0.8249227104,23.7564089357,19.8814970279,47.2885630189,0.1745329252,0.3490658504,0.5235987756,10.0050721452,20.0101442904,30.0152164356
1.4100000000,9136.6211500107,29968.1173720349,994.6987018200,0.0008921656,26.8010547863,0.0454646303,-1.1929804357,-68.3874135094,0.3919214584,22.4668351970,-5.0034037741,11.0402284016,7.5463635204,-16.4111643791,36.2119491573,24.7520723468,0.4184075030,0.3478961787,0.8315170152,23.9851434850,19.9430930493,47.6665804894,0.1745329252,0.3490658504,0.5235987756,10.0050721452,20.0101442904,30.0152164356
1.4200000000,9136.4827842286,29967.6635322697,994.7006505006,0.0008921805,26.9911335802,0.0457869855,-1.1912426137,-68.2877931403,0.3954788771,22.6707636553,-4.9925250604,11.1800125112,7.5375889531,-16.3754821980,36.6704410368,24.7232917662,0.4224066430,0.3489459099,0.8381183744,24.2143935492,20.0032687206,48.0450023541,0.1745329252,0.3490658504,0.5235987756,10.0050721452,20.0101442904,30.0152164356
1.4300000000,9136.3434405944,29967.2064851497,994.7026129528,0.0008921955,27.1812123823,0.0461093388,-1.1895198524,-68.1890361250,0.3990435919,22.8751103636,-4.9798382543,11.3197643259,7.5281755641,-16.3338694742,37.1288269891,24.6924158504,0.4264145846,0.3499707918,0.8447266455,24.4441481607,20.0620199149,48.4238204421,0.1745329252,0.3490658504,0.5235987756,10.0050721452,20.0101442904,30.0152164356
1.4400000000,9136.2031191082,29966.7462306748,994.7045891766,0.0008922106,27.3712911928,0.0464316901,-1.1878122065,-68.0911455958,0.4026155287,23.0798710711,-4.9653261049,11.4594545192,7.5181390936,-16.2862696239,37.5870108229,24.6594962269,0.4304311345,0.3509707541,0.8513416839,24.6743962447,20.1193425902,48.8030264684,0.1745329252,0.3490658504,0.5235987756,10.0050721452,20.0101442904,30.0152164356
1.4500000000,9136.0618197697,29966.2827688447,994.7065791721,0.0008922258,27.5613700117,0.0467540396,-1.1861197316,-67.9941247430,0.4061946133,23.2850415283,-4.9489717327,11.5990536303,7.5074955367,-16.2326272831,38.0448959075,24.6245853603,0.4344560977,0.3519457276,0.8579633433,24.9051266212,20.1752327905,49.1826120355,0.1745329252,0.3490658504,0.5235987756,10.0050721452,20.0101442904,30.0152164356
1.4600000000,9135.9195425791,29965.8160996594,994.7085829391,0.0008922411,27.7514488391,0.0470763871,-1.1844424845,-67.8979768161,0.4097807717,23.4906174868,-4.9307586351,11.7385320721,7.4962611404,-16.1728883232,38.5023851964,24.5877365406,0.4384892774,0.3528956448,0.8645914751,25.1363280064,20.2296866472,49.5625686353,0.1745329252,0.3490658504,0.5235987756,10.0050721452,20.0101442904,30.0152164356
1.4700000000,9135.7762875362,29965.3462231188,994.7106004778,0.0008922565,27.9415276750,0.0473987327,-1.1827805227,-67.8027051253,0.4133739298,23.6965946991,-4.9106706912,11.8778601375,7.4844524002,-16.1069998671,38.9593812509,24.5490038725,0.4425304750,0.3538204400,0.8712259290,25.3679890150,20.2827003796,49.9428876518,0.1745329252,0.3490658504,0.5235987756,10.0050721452,20.0101442904,30.0152164356
1.4800000000,9135.6320546410,29964.8731392226,994.7126317881,0.0008922721,28.1316065195,0.0477210763,-1.1811339053,-67.7083130427,0.4169740134,23.9029689182,-4.8886921662,12.0170080074,7.4720860561,-16.0349103051,39.4157862643,24.5084422641,0.4465794902,0.3547200485,0.8778665530,25.6000981617,20.3342702970,50.3235603623,0.1745329252,0.3490658504,0.5235987756,10.0050721452,20.0101442904,30.0152164356
